$SDDBT,6.4,f,1.9,M,1.0,F*0D
$VWVHW,,,,,5.54,N,10.26,K*7C
$WIMTW,22.2,C*0F
$GPRMC,142141.000,A,4438.4129,N,00113.2246,W,4.01,356.08,160824,,,A*7F
$WIMWV,312.5,R,9.9,N,A*26
$GPGLL,4438.4140,N,00113.2247,W,142142.000,A,A*41
$SDDBT,6.2,f,1.8,M,1.0,F*0A
$VWVHW,,,,,5.31,N,9.83,K*48
$WIMTW,22.2,C*0F
$GPRMC,142142.000,A,4438.4140,N,00113.2247,W,3.94,353.99,160824,,,A*74
$WIMWV,319.0,R,11.7,N,A*1F
!AIVDM,1,1,,B,33Hq<wPPAmOrHptISLqIaogF01jP,0*70
$GPGLL,4438.4152,N,00113.2249,W,142143.000,A,A*4D
$SDDBT,7.7,f,2.3,M,1.2,F*04
$VWVHW,,,,,5.30,N,9.81,K*4B
$WIMTW,22.2,C*0F
$GPRMC,142143.000,A,4438.4152,N,00113.2249,W,4.16,356.62,160824,,,A*74
$WIMWV,322.0,R,9.7,N,A*2E
!AIVDM,1,1,,B,13HquD?000wrh;4ISKHJo3aJ0@J8,0*64
$GPGLL,4438.4163,N,00113.2250,W,142144.000,A,A*40
$SDDBT,7.7,f,2.3,M,1.2,F*04
$VWVHW,,,,,5.55,N,10.27,K*7C
$WIMTW,22.2,C*0F
$WIMWV,303.0,R,10.3,N,A*11
$GPRMC,142144.000,A,4438.4163,N,00113.2250,W,4.09,353.01,160824,,,A*77
$SDDBT,5.3,f,1.6,M,0.8,F*0F
!AIVDM,1,1,,B,H3IIAJPpTLQB0t<D4p000000000,2*34
$VWVHW,,,,,4.78,N,8.85,K*43
$WIMTW,22.2,C*0F
$GPGLL,4438.4174,N,00113.2253,W,142145.000,A,A*44
$WIMWV,327.5,R,9.3,N,A*2A
$SDDBT,5.2,f,1.5,M,0.8,F*0D
$VWVHW,,,,,5.05,N,9.35,K*42
$WIMTW,22.2,C*0F
$GPRMC,142146.000,A,4438.4185,N,00113.2256,W,3.76,352.80,160824,,,A*7C
$WIMWV,317.5,R,10.2,N,A*10
!AIVDM,1,1,,B,B3IVpS00<OvbE4VHu?ptowo1l<0D,0*4C
$VWVHW,,,,,4.56,N,8.44,K*42
$WIMTW,22.6,C*0B
$GPRMC,143721.000,A,4438.3933,N,00113.6949,W,2.80,15.01,160824,,,A*48
$WIMWV,269.0,R,7.8,N,A*21
!AIVDM,1,1,,B,33Hq<wPOh3OrEh2ISGGLpK2d022P,0*6A
!AIVDM,1,1,,B,B3Hv0;P0;wvVqb6HjuHNtFbTCP06,0*08
$SDDBT,40.6,f,12.3,M,6.7,F*05
$GPGLL,4438.3940,N,00113.6946,W,143722.000,A,A*41
!AIVDM,1,1,,B,B3I1I100CGvWFqVHp2`hcwr5kP06,0*7C
$VWVHW,,,,,4.54,N,8.40,K*44
$WIMTW,22.6,C*0B
$GPRMC,143722.000,A,4438.3940,N,00113.6946,W,2.80,23.63,160824,,,A*41
$WIMWV,268.0,R,6.7,N,A*2E
$SDDBT,39.9,f,12.1,M,6.6,F*07
$GPGLL,4438.3947,N,00113.6942,W,143723.000,A,A*43
$VWVHW,,,,,4.54,N,8.40,K*44
$WIMTW,22.6,C*0B
$GPRMC,143723.000,A,4438.3947,N,00113.6942,W,2.71,17.49,160824,,,A*42
$WIMWV,258.5,R,7.6,N,A*28
$SDDBT,41.3,f,12.5,M,6.8,F*08
$GPGLL,4438.3955,N,00113.6939,W,143724.000,A,A*4B
$VWVHW,,,,,4.54,N,8.40,K*44
$WIMTW,22.6,C*0B
$WIMWV,286.0,R,7.8,N,A*20
!AIVDM,1,1,,B,33INo20018OrFAHISFe3RBNn0Quh,0*42
$GPRMC,143724.000,A,4438.3955,N,00113.6939,W,2.63,15.26,160824,,,A*42
$SDDBT,40.5,f,12.3,M,6.7,F*06
$VWVHW,,,,,4.54,N,8.40,K*44
$WIMTW,22.6,C*0B
$GPGLL,4438.3962,N,00113.6936,W,143725.000,A,A*41
$WIMWV,263.0,R,6.6,N,A*24
$SDDBT,41.8,f,12.7,M,6.9,F*00
$VWVHW,,,,,4.40,N,8.14,K*40
$WIMTW,22.6,C*0B
$GPRMC,143726.000,A,4438.3969,N,00113.6934,W,2.66,10.52,160824,,,A*41
$WIMWV,287.5,R,7.2,N,A*2E
$SDDBT,42.5,f,12.9,M,7.0,F*08
$GPGLL,4438.3976,N,00113.6931,W,143727.000,A,A*41
$VWVHW,,,,,4.54,N,8.40,K*44
$WIMTW,22.6,C*0B
$WIMWV,270.0,R,6.8,N,A*28
$GPRMC,143727.000,A,4438.3976,N,00113.6931,W,2.87,21.30,160824,,,A*42
$SDDBT,42.5,f,12.9,M,7.0,F*08
$GPGLL,4438.3984,N,00113.6927,W,143728.000,A,A*44
$VWVHW,,,,,4.40,N,8.14,K*40
$WIMTW,22.6,C*0B
$WIMWV,278.5,R,6.2,N,A*2F
$GPRMC,143728.000,A,4438.3984,N,00113.6927,W,2.79,19.57,160824,,,A*4C
!AIVDM,1,1,,B,13Hq<wPOh2OrEgrISGGsAK<p00Rv,0*76
$SDDBT,41.7,f,12.7,M,6.9,F*0F
$GPGLL,4438.3991,N,00113.6925,W,143729.000,A,A*43
$VWVHW,,,,,4.10,N,7.59,K*43
$WIMTW,22.6,C*0B
$WIMWV,296.0,R,7.6,N,A*2F
$GPRMC,143729.000,A,4438.3991,N,00113.6925,W,2.54,2.09,160824,,,A*75
$SDDBT,42.0,f,12.8,M,7.0,F*0C
$VWVHW,,,,,4.54,N,8.40,K*44
$WIMTW,22.6,C*0B
$WIMWV,255.0,R,8.8,N,A*21
$GPGLL,4438.3999,N,00113.6924,W,143730.000,A,A*42
!AIVDM,1,1,,B,13INo20Oi;OrFFtISFg3LBU20UjD,0*33
!AIVDM,1,1,,B,402:ngAvR8>UNOrB:<IRvKw02D23,0*37
$SDDBT,48.0,f,14.6,M,8.0,F*01
$GPGLL,4438.5085,N,00113.6720,W,143949.000,A,A*4A
$VWVHW,,,,,5.04,N,9.33,K*45
$WIMTW,22.6,C*0B
$WIMWV,299.5,R,10.8,N,A*1D
!AIVDM,1,1,,B,13INo2001fOrHu>ISJV2Nis`0d0I,0*39
$GPRMC,143949.000,A,4438.5085,N,00113.6720,W,3.27,9.89,160824,,,A*7A
$SDDBT,48.0,f,14.6,M,8.0,F*01
$VWVHW,,,,,5.30,N,9.81,K*4B
$WIMTW,22.6,C*0B
$GPGLL,4438.5094,N,00113.6718,W,143950.000,A,A*49
$WIMWV,301.5,R,9.9,N,A*24
!AIVDM,1,1,,B,402:ngAvR8>WjOrB:>IRvD?02<20,0*2F
$SDDBT,47.3,f,14.4,M,7.8,F*08
$VWVHW,,,,,5.03,N,9.31,K*40
$WIMTW,22.6,C*0B
$GPRMC,143951.000,A,4438.5104,N,00113.6716,W,3.41,3.94,160824,,,A*78
$WIMWV,305.5,R,10.4,N,A*15
$SDDBT,47.7,f,14.5,M,7.9,F*0C
$GPGLL,4438.5113,N,00113.6715,W,143952.000,A,A*48
$VWVHW,,,,,5.31,N,9.83,K*48
$WIMTW,22.6,C*0B
$GPRMC,143952.000,A,4438.5113,N,00113.6715,W,3.46,7.33,160824,,,A*70
$WIMWV,299.5,R,9.3,N,A*2E
!AIVDM,1,1,,B,13HO::3P0VOrIqBISCeB:Owp0`O4,0*45
$SDDBT,48.1,f,14.6,M,8.0,F*00
$GPGLL,4438.5123,N,00113.6714,W,143953.000,A,A*4B
$VWVHW,,,,,5.55,N,10.27,K*7C
$WIMTW,22.6,C*0B
$GPRMC,143953.000,A,4438.5123,N,00113.6714,W,3.46,5.41,160824,,,A*74
$WIMWV,292.5,R,9.9,N,A*2F
$SDDBT,48.0,f,14.6,M,8.0,F*01
$GPGLL,4438.5133,N,00113.6712,W,143954.000,A,A*4B
$VWVHW,,,,,5.04,N,9.33,K*45
$WIMTW,22.6,C*0B
$WIMWV,308.0,R,10.0,N,A*19
$GPRMC,143954.000,A,4438.5133,N,00113.6712,W,3.51,5.46,160824,,,A*75
$SDDBT,47.4,f,14.4,M,7.9,F*0E
$VWVHW,,,,,5.04,N,9.33,K*45
$WIMTW,22.6,C*0B
$WIMWV,289.5,R,10.9,N,A*1D
$GPGLL,4438.5143,N,00113.6712,W,143955.000,A,A*4D
$SDDBT,30.6,f,9.3,M,5.1,F*3D
$GPGLL,4439.1180,N,00112.9955,W,145627.000,A,A*48
$VWVHW,,,,,3.42,N,6.33,K*4E
$WIMTW,22.6,C*0B
$WIMWV,262.5,R,6.8,N,A*2E
$GPRMC,145627.000,A,4439.1180,N,00112.9955,W,1.95,52.60,160824,,,A*4A
$SDDBT,30.4,f,9.2,M,5.0,F*3F
$GPGLL,4439.1184,N,00112.9949,W,145628.000,A,A*4E
$VWVHW,,,,,3.52,N,6.51,K*4B
$WIMTW,22.6,C*0B
$WIMWV,274.0,R,7.2,N,A*27
!AIVDM,1,1,,B,13Hq<wP000OrEfnISGF@:0Br0H@n,0*72
$GPRMC,145628.000,A,4439.1184,N,00112.9949,W,1.81,52.61,160824,,,A*48
!AIVDM,1,1,,B,B3Hu;VP00?v`QQ6IJkHuSwfUoP06,0*30
$SDDBT,30.4,f,9.2,M,5.0,F*3F
$GPGLL,4439.1187,N,00112.9943,W,145629.000,A,A*46
$VWVHW,,,,,3.62,N,6.70,K*4B
!AIVDM,1,1,,B,B3INqW00DgvVoc6IBk38KwfQl5kP,0*4E
$WIMWV,245.5,R,7.0,N,A*22
$WIMTW,22.6,C*0B
$GPRMC,145629.000,A,4439.1187,N,00112.9943,W,1.94,56.18,160824,,,A*4E
$SDDBT,30.2,f,9.2,M,5.0,F*39
$WIMWV,278.5,R,6.5,N,A*28
$VWVHW,,,,,3.62,N,6.70,K*4B
$WIMTW,22.6,C*0B
$GPGLL,4439.1190,N,00112.9936,W,145630.000,A,A*4A
!AIVDM,1,1,,B,402:ngAvR8>pNOrB9vIRvGg028BA,0*39
!AIVDM,1,1,,B,13INo20P@AOraL`ISdqUnSu20UkP,0*12
$SDDBT,30.6,f,9.3,M,5.1,F*3D
$WIMWV,263.5,R,6.5,N,A*22
$VWVHW,,,,,3.52,N,6.51,K*4B
$WIMTW,22.6,C*0B
$GPRMC,145631.000,A,4439.1193,N,00112.9930,W,1.92,48.64,160824,,,A*44
$SDDBT,31.2,f,9.5,M,5.2,F*3D
$WIMWV,269.5,R,7.4,N,A*28
$GPGLL,4439.1196,N,00112.9925,W,145632.000,A,A*4C
$VWVHW,,,,,3.62,N,6.70,K*4B
$WIMTW,22.6,C*0B
!AIVDM,1,1,,B,13HO::3P0TOrOlvISWjQF?wp0d0E,0*66
!AIVDM,1,1,,B,D02:ngAJ0Nfq6DO6D0,4*49
$GPRMC,145632.000,A,4439.1196,N,00112.9925,W,1.74,48.16,160824,,,A*4B
!AIVDM,1,1,,B,33INo20P@AOraLhISdpUlCo60Pm0,0*76
$WIMWV,255.5,R,7.0,N,A*23
$SDDBT,31.7,f,9.6,M,5.2,F*3B
$GPGLL,4439.1199,N,00112.9919,W,145633.000,A,A*4D
$VWVHW,,,,,3.62,N,6.70,K*4B
$WIMTW,22.6,C*0B
$GPRMC,145633.000,A,4439.1199,N,00112.9919,W,2.09,64.20,160824,,,A*48
$VWVHW,,,,,6.04,N,11.18,K*76
$WIMTW,22.2,C*0F
$GPRMC,145711.000,A,4439.1512,N,00112.9571,W,4.11,41.32,160824,,,A*47
$WIMWV,298.0,R,11.6,N,A*16
$SDDBT,29.5,f,8.9,M,4.9,F*34
$VWVHW,,,,,6.29,N,11.64,K*72
$GPGLL,4439.1520,N,00112.9559,W,145712.000,A,A*41
$WIMTW,22.2,C*0F
$GPRMC,145712.000,A,4439.1520,N,00112.9559,W,4.35,52.93,160824,,,A*40
$WIMWV,280.0,R,8.9,N,A*28
!AIVDM,1,1,,B,13HO::3P0TOrP30IS`cBKOwp0Uk`,0*7F
!AIVDM,1,1,,B,H3IaKh1<q?Jo37R222222222220,2*65
$SDDBT,29.7,f,9.0,M,4.9,F*3E
$GPGLL,4439.1527,N,00112.9546,W,145713.000,A,A*49
$VWVHW,,,,,5.54,N,10.26,K*7C
$WIMTW,22.2,C*0F
$GPRMC,145713.000,A,4439.1527,N,00112.9546,W,4.29,50.65,160824,,,A*4E
$WIMWV,280.0,R,8.9,N,A*28
!AIVDM,1,1,,B,B3IP;LP0E7vVURVH=T0=?wW5oP06,0*66
$SDDBT,29.9,f,9.1,M,4.9,F*31
$GPGLL,4439.1534,N,00112.9532,W,145714.000,A,A*4F
$VWVHW,,,,,6.04,N,11.18,K*76
$WIMTW,22.2,C*0F
$WIMWV,302.0,R,9.1,N,A*2A
!AIVDM,1,1,,B,H3I:2d4U1=30000674qnkp0`5220,0*41
$GPRMC,145714.000,A,4439.1534,N,00112.9532,W,4.41,62.06,160824,,,A*42
$SDDBT,29.9,f,9.1,M,4.9,F*31
$VWVHW,,,,,6.04,N,11.18,K*76
$WIMTW,22.6,C*0B
$GPGLL,4439.1540,N,00112.9517,W,145715.000,A,A*4A
$WIMWV,284.0,R,7.2,N,A*28
!AIVDM,1,1,,B,B3IQFLP0iWvWOHVHmmLM3wWQh5kT,0*01
