$GPRMC,144756.000,A,4440.3443,N,00111.5018,W,5.01,216.12,201205,,,A*76
$GPRMC,144758.000,A,4440.3422,N,00111.5042,W,4.94,218.87,201205,,,A*7F
$GPRMC,144759.000,A,4440.3411,N,00111.5054,W,4.98,221.38,201205,,,A*7B
$GPRMC,144800.000,A,4440.3401,N,00111.5067,W,5.02,220.32,201205,,,A*70
$GPRMC,144801.000,A,4440.3391,N,00111.5080,W,5.06,221.89,201205,,,A*73
$GPRMC,144803.000,A,4440.3370,N,00111.5106,W,5.06,221.62,201205,,,A*74
$GPRMC,144804.000,A,4440.3359,N,00111.5119,W,5.05,218.18,201205,,,A*72
$GPRMC,144805.000,A,4440.3348,N,00111.5131,W,5.01,217.52,201205,,,A*7C
$GPRMC,144806.000,A,4440.3337,N,00111.5143,W,5.05,217.63,201205,,,A*74
$GPRMC,144808.000,A,4440.3315,N,00111.5167,W,4.98,217.65,201205,,,A*7F
$GPRMC,144809.000,A,4440.3305,N,00111.5180,W,5.03,220.44,201205,,,A*72
$GPRMC,144810.000,A,4440.3294,N,00111.5192,W,5.05,220.00,201205,,,A*76
$GPRMC,144811.000,A,4440.3284,N,00111.5205,W,5.05,218.85,201205,,,A*7D
$GPRMC,144813.000,A,4440.3263,N,00111.5230,W,4.87,222.05,201205,,,A*7A
$GPRMC,144814.000,A,4440.3253,N,00111.5243,W,4.88,222.38,201205,,,A*7B
$GPRMC,144815.000,A,4440.3243,N,00111.5256,W,4.84,221.83,201205,,,A*70
$GPRMC,144816.000,A,4440.3234,N,00111.5269,W,4.83,222.23,201205,,,A*71
$GPRMC,144818.000,A,4440.3214,N,00111.5294,W,4.80,221.07,201205,,,A*79
$GPRMC,144819.000,A,4440.3204,N,00111.5306,W,4.86,220.53,201205,,,A*75
$GPRMC,144820.000,A,4440.3194,N,00111.5319,W,4.93,220.25,201205,,,A*7E
$GPRMC,144821.000,A,4440.3183,N,00111.5331,W,4.86,220.97,201205,,,A*7E
$GPRMC,144823.000,A,4440.3163,N,00111.5356,W,4.80,221.26,201205,,,A*7E
$GPRMC,144824.000,A,4440.3154,N,00111.5369,W,4.76,222.84,201205,,,A*73
$GPRMC,144825.000,A,4440.3144,N,00111.5381,W,4.79,220.63,201205,,,A*71
$GPRMC,144826.000,A,4440.3134,N,00111.5393,W,4.73,219.65,201205,,,A*70
$GPRMC,144828.000,A,4440.3114,N,00111.5417,W,4.73,219.70,201205,,,A*73
$GPRMC,144829.000,A,4440.3104,N,00111.5429,W,4.75,218.34,201205,,,A*79
$GPRMC,144830.000,A,4440.3094,N,00111.5440,W,4.78,217.12,201205,,,A*70
$GPRMC,144831.000,A,4440.3083,N,00111.5452,W,4.80,215.90,201205,,,A*7B
$GPRMC,144833.000,A,4440.3062,N,00111.5473,W,4.79,217.26,201205,,,A*7C
$GPRMC,144834.000,A,4440.3051,N,00111.5485,W,4.76,219.90,201205,,,A*7E
$GPRMC,144835.000,A,4440.3042,N,00111.5497,W,4.82,221.65,201205,,,A*74
$GPRMC,144836.000,A,4440.3032,N,00111.5510,W,4.86,222.47,201205,,,A*79
$GPRMC,144838.000,A,4440.3012,N,00111.5535,W,4.71,221.31,201205,,,A*78
$GPRMC,144839.000,A,4440.3002,N,00111.5547,W,4.77,220.78,201205,,,A*77
$GPRMC,144840.000,A,4440.2992,N,00111.5559,W,4.75,220.25,201205,,,A*7D
$GPRMC,144841.000,A,4440.2982,N,00111.5571,W,4.77,221.21,201205,,,A*70
$GPRMC,144843.000,A,4440.2963,N,00111.5595,W,4.76,219.98,201205,,,A*7F
$GPRMC,144844.000,A,4440.2952,N,00111.5607,W,4.77,216.59,201205,,,A*71
$GPRMC,144845.000,A,4440.2942,N,00111.5619,W,4.77,219.93,201205,,,A*77
$GPRMC,144846.000,A,4440.2932,N,00111.5631,W,4.83,219.44,201205,,,A*78
$GPRMC,144848.000,A,4440.2911,N,00111.5654,W,4.83,218.45,201205,,,A*74
$GPRMC,144849.000,A,4440.2901,N,00111.5667,W,4.74,220.68,201205,,,A*78
$GPRMC,144850.000,A,4440.2891,N,00111.5679,W,4.73,220.63,201205,,,A*7B
$GPRMC,144851.000,A,4440.2882,N,00111.5691,W,4.73,220.92,201205,,,A*70
$GPRMC,144853.000,A,4440.2863,N,00111.5716,W,4.64,223.23,201205,,,A*7C
$GPRMC,144854.000,A,4440.2854,N,00111.5728,W,4.56,224.09,201205,,,A*7C
$GPRMC,144855.000,A,4440.2845,N,00111.5741,W,4.63,222.40,201205,,,A*7F
$GPRMC,144856.000,A,4440.2835,N,00111.5753,W,4.67,219.64,201205,,,A*72
$GPRMC,144858.000,A,4440.2815,N,00111.5775,W,4.65,218.47,201205,,,A*78
$GPRMC,144859.000,A,4440.2805,N,00111.5787,W,4.60,218.79,201205,,,A*7D
$GPRMC,144900.000,A,4440.2795,N,00111.5798,W,4.62,218.36,201205,,,A*71
$GPRMC,144901.000,A,4440.2786,N,00111.5810,W,4.65,220.94,201205,,,A*79
$GPRMC,144903.000,A,4440.2767,N,00111.5833,W,4.66,220.73,201205,,,A*7F
$GPRMC,144904.000,A,4440.2757,N,00111.5845,W,4.67,221.58,201205,,,A*73
$GPRMC,144905.000,A,4440.2748,N,00111.5858,W,4.64,222.44,201205,,,A*7D
$GPRMC,144906.000,A,4440.2738,N,00111.5870,W,4.65,221.77,201205,,,A*71
$GPRMC,144908.000,A,4440.2719,N,00111.5894,W,4.69,219.55,201205,,,A*71
$GPRMC,144909.000,A,4440.2709,N,00111.5906,W,4.64,220.63,201205,,,A*79
$GPRMC,144910.000,A,4440.2699,N,00111.5918,W,4.66,219.59,201205,,,A*77
$GPRMC,144911.000,A,4440.2690,N,00111.5930,W,4.62,222.69,201205,,,A*7A
$GPRMC,144913.000,A,4440.2671,N,00111.5955,W,4.72,222.45,201205,,,A*7B
$GPRMC,144914.000,A,4440.2662,N,00111.5968,W,4.73,222.86,201205,,,A*7E
$GPRMC,144915.000,A,4440.2652,N,00111.5980,W,4.75,221.02,201205,,,A*73
$GPRMC,144916.000,A,4440.2642,N,00111.5993,W,4.74,221.22,201205,,,A*70
$GPRMC,144918.000,A,4440.2623,N,00111.6017,W,4.77,221.42,201205,,,A*7A
$GPRMC,144919.000,A,4440.2613,N,00111.6029,W,4.69,217.62,201205,,,A*7D
$GPRMC,144920.000,A,4440.2602,N,00111.6040,W,4.76,216.70,201205,,,A*74
$GPRMC,144921.000,A,4440.2592,N,00111.6051,W,4.78,215.25,201205,,,A*72
$GPRMC,144923.000,A,4440.2571,N,00111.6075,W,4.86,221.68,201205,,,A*74
$GPRMC,144924.000,A,4440.2561,N,00111.6087,W,4.99,222.39,201205,,,A*76
$GPRMC,144925.000,A,4440.2551,N,00111.6100,W,4.97,219.27,201205,,,A*73
$GPRMC,144926.000,A,4440.2541,N,00111.6113,W,4.94,222.86,201205,,,A*73
$GPRMC,144928.000,A,4440.2520,N,00111.6140,W,5.09,220.91,201205,,,A*7D
$GPRMC,144929.000,A,4440.2510,N,00111.6153,W,4.98,218.14,201205,,,A*72
$GPRMC,144930.000,A,4440.2499,N,00111.6165,W,4.99,219.32,201205,,,A*7B
$GPRMC,144931.000,A,4440.2488,N,00111.6178,W,5.06,220.88,201205,,,A*7A
$GPRMC,144933.000,A,4440.2468,N,00111.6204,W,4.95,221.68,201205,,,A*7A
$GPRMC,144934.000,A,4440.2458,N,00111.6218,W,5.05,227.44,201205,,,A*73
$GPRMC,144935.000,A,4440.2449,N,00111.6232,W,5.10,227.69,201205,,,A*71
$GPRMC,144936.000,A,4440.2439,N,00111.6247,W,5.07,225.56,201205,,,A*7F
$GPRMC,144938.000,A,4440.2420,N,00111.6275,W,5.06,228.21,201205,,,A*74
$GPRMC,144939.000,A,4440.2411,N,00111.6290,W,5.05,228.27,201205,,,A*79
$GPRMC,144940.000,A,4440.2401,N,00111.6305,W,5.02,225.50,201205,,,A*71
$GPRMC,144941.000,A,4440.2392,N,00111.6319,W,4.94,225.69,201205,,,A*74
$GPRMC,144943.000,A,4440.2373,N,00111.6347,W,4.93,223.60,201205,,,A*7A
$GPRMC,144944.000,A,4440.2363,N,00111.6360,W,4.89,225.07,201205,,,A*75
$GPRMC,144945.000,A,4440.2354,N,00111.6374,W,4.92,223.81,201205,,,A*77
$GPRMC,144946.000,A,4440.2344,N,00111.6387,W,4.92,226.33,201205,,,A*75
$GPRMC,144948.000,A,4440.2325,N,00111.6415,W,4.86,222.99,201205,,,A*71
$GPRMC,144949.000,A,4440.2315,N,00111.6428,W,4.75,221.85,201205,,,A*7F
$GPRMC,144950.000,A,4440.2305,N,00111.6440,W,4.72,221.40,201205,,,A*76
$GPRMC,144951.000,A,4440.2296,N,00111.6452,W,4.66,221.56,201205,,,A*7D
$GPRMC,144953.000,A,4440.2276,N,00111.6476,W,4.63,218.30,201205,,,A*78
$GPRMC,144954.000,A,4440.2267,N,00111.6488,W,4.61,221.14,201205,,,A*70
$GPRMC,144955.000,A,4440.2257,N,00111.6500,W,4.70,220.25,201205,,,A*70
$GPRMC,144956.000,A,4440.2247,N,00111.6512,W,4.68,222.15,201205,,,A*79
$GPRMC,144958.000,A,4440.2229,N,00111.6537,W,4.58,224.15,201205,,,A*7D
$GPRMC,144959.000,A,4440.2220,N,00111.6550,W,4.59,225.71,201205,,,A*76
$GPRMC,145000.000,A,4440.2211,N,00111.6563,W,4.56,226.30,201205,,,A*79
$GPRMC,145001.000,A,4440.2203,N,00111.6576,W,4.53,227.21,201205,,,A*7B
$GPRMC,145003.000,A,4440.2186,N,00111.6602,W,4.46,225.78,201205,,,A*7D
$GPRMC,145004.000,A,4440.2177,N,00111.6615,W,4.56,227.54,201205,,,A*7F
$GPRMC,145005.000,A,4440.2169,N,00111.6627,W,4.49,223.88,201205,,,A*7B
$GPRMC,145006.000,A,4440.2160,N,00111.6640,W,4.41,224.81,201205,,,A*76
$GPRMC,145008.000,A,4440.2143,N,00111.6665,W,4.43,227.42,201205,,,A*70
$GPRMC,145009.000,A,4440.2135,N,00111.6677,W,4.33,228.32,201205,,,A*7C
$GPRMC,145010.000,A,4440.2127,N,00111.6690,W,4.42,229.61,201205,,,A*7F
$GPRMC,145011.000,A,4440.2119,N,00111.6704,W,4.43,230.59,201205,,,A*7D
$GPRMC,145013.000,A,4440.2104,N,00111.6730,W,4.35,227.90,201205,,,A*76
$GPRMC,145014.000,A,4440.2096,N,00111.6742,W,4.37,227.26,201205,,,A*71
$GPRMC,145015.000,A,4440.2088,N,00111.6755,W,4.44,227.80,201205,,,A*71
$GPRMC,145016.000,A,4440.2079,N,00111.6768,W,4.45,226.37,201205,,,A*7E
$GPRMC,145018.000,A,4440.2063,N,00111.6793,W,4.44,227.64,201205,,,A*79
$GPRMC,145019.000,A,4440.2054,N,00111.6806,W,4.52,226.31,201205,,,A*79
$GPRMC,145020.000,A,4440.2046,N,00111.6819,W,4.44,224.61,201205,,,A*7E
$GPRMC,145021.000,A,4440.2037,N,00111.6831,W,4.41,227.29,201205,,,A*79
$GPRMC,145023.000,A,4440.2021,N,00111.6856,W,4.35,224.69,201205,,,A*79
$GPRMC,145024.000,A,4440.2012,N,00111.6868,W,4.35,222.72,201205,,,A*7F
$GPRMC,145025.000,A,4440.2003,N,00111.6880,W,4.34,220.73,201205,,,A*7A
$GPRMC,145026.000,A,4440.1994,N,00111.6891,W,4.31,219.95,201205,,,A*7A
$GPRMC,145028.000,A,4440.1977,N,00111.6913,W,4.27,224.02,201205,,,A*75
$GPRMC,145029.000,A,4440.1968,N,00111.6925,W,4.24,224.43,201205,,,A*79
$GPRMC,145030.000,A,4440.1960,N,00111.6937,W,4.24,225.88,201205,,,A*7C
$GPRMC,145031.000,A,4440.1952,N,00111.6949,W,4.23,228.24,201205,,,A*79
$GPRMC,145033.000,A,4440.1937,N,00111.6974,W,4.19,226.58,201205,,,A*7A
$GPRMC,145034.000,A,4440.1929,N,00111.6986,W,4.18,227.81,201205,,,A*7B
$GPRMC,145035.000,A,4440.1921,N,00111.6998,W,4.28,227.48,201205,,,A*7B
$GPRMC,145036.000,A,4440.1913,N,00111.7010,W,4.25,225.68,201205,,,A*7C
$GPRMC,145038.000,A,4440.1897,N,00111.7034,W,4.27,224.81,201205,,,A*7D
$GPRMC,145039.000,A,4440.1889,N,00111.7047,W,4.30,226.68,201205,,,A*74
$GPRMC,145040.000,A,4440.1881,N,00111.7059,W,4.25,225.96,201205,,,A*7B
$GPRMC,145041.000,A,4440.1873,N,00111.7071,W,4.20,227.69,201205,,,A*7A
$GPRMC,145043.000,A,4440.1858,N,00111.7096,W,4.17,228.94,201205,,,A*71
$GPRMC,145044.000,A,4440.1851,N,00111.7108,W,4.14,227.95,201205,,,A*74
$GPRMC,145045.000,A,4440.1843,N,00111.7120,W,4.06,227.69,201205,,,A*7C
$GPRMC,145046.000,A,4440.1836,N,00111.7132,W,3.96,227.89,201205,,,A*7E
$GPRMC,145048.000,A,4440.1821,N,00111.7155,W,3.96,225.30,201205,,,A*77
$GPRMC,145049.000,A,4440.1813,N,00111.7167,W,3.97,225.74,201205,,,A*77
$GPRMC,145050.000,A,4440.1806,N,00111.7178,W,4.09,228.10,201205,,,A*7A
$GPRMC,145051.000,A,4440.1798,N,00111.7190,W,4.08,224.31,201205,,,A*7B
$GPRMC,145053.000,A,4440.1783,N,00111.7212,W,4.02,224.46,201205,,,A*70
$GPRMC,145054.000,A,4440.1775,N,00111.7224,W,4.00,225.42,201205,,,A*7C
$GPRMC,145055.000,A,4440.1767,N,00111.7235,W,4.00,225.94,201205,,,A*75
$GPRMC,145056.000,A,4440.1760,N,00111.7246,W,3.96,227.34,201205,,,A*75
$GPRMC,145058.000,A,4440.1746,N,00111.7270,W,3.98,229.78,201205,,,A*72
$GPRMC,145059.000,A,4440.1739,N,00111.7282,W,3.92,227.56,201205,,,A*7E
$GPRMC,145100.000,A,4440.1732,N,00111.7293,W,3.92,229.37,201205,,,A*71
$GPRMC,145101.000,A,4440.1725,N,00111.7305,W,3.92,228.46,201205,,,A*7F
$GPRMC,145103.000,A,4440.1711,N,00111.7328,W,3.90,226.43,201205,,,A*7C
$GPRMC,145104.000,A,4440.1703,N,00111.7340,W,3.88,227.84,201205,,,A*75
$GPRMC,145105.000,A,4440.1696,N,00111.7351,W,4.01,227.80,201205,,,A*7B
$GPRMC,145106.000,A,4440.1689,N,00111.7363,W,3.95,224.26,201205,,,A*72
$GPRMC,145108.000,A,4440.1674,N,00111.7385,W,4.00,223.84,201205,,,A*72
$GPRMC,145109.000,A,4440.1666,N,00111.7396,W,4.03,223.30,201205,,,A*7E
$GPRMC,145110.000,A,4440.1658,N,00111.7407,W,4.08,223.97,201205,,,A*72
$GPRMC,145111.000,A,4440.1650,N,00111.7418,W,4.13,223.90,201205,,,A*78
$GPRMC,145113.000,A,4440.1633,N,00111.7440,W,4.11,223.63,201205,,,A*7C
$GPRMC,145114.000,A,4440.1625,N,00111.7451,W,4.19,222.50,201205,,,A*75
$GPRMC,145115.000,A,4440.1617,N,00111.7463,W,4.17,223.53,201205,,,A*78
$GPRMC,145116.000,A,4440.1609,N,00111.7474,W,4.29,224.51,201205,,,A*7A
$GPRMC,145118.000,A,4440.1592,N,00111.7497,W,4.24,221.75,201205,,,A*76
$GPRMC,145119.000,A,4440.1583,N,00111.7509,W,4.38,224.74,201205,,,A*78
$GPRMC,145120.000,A,4440.1574,N,00111.7521,W,4.39,222.17,201205,,,A*72
$GPRMC,145121.000,A,4440.1566,N,00111.7533,W,4.32,222.14,201205,,,A*7B
$GPRMC,145123.000,A,4440.1548,N,00111.7556,W,4.39,223.60,201205,,,A*7F
$GPRMC,145124.000,A,4440.1540,N,00111.7568,W,4.33,223.55,201205,,,A*71
$GPRMC,145125.000,A,4440.1531,N,00111.7580,W,4.33,224.59,201205,,,A*7B
$GPRMC,145126.000,A,4440.1523,N,00111.7592,W,4.39,226.43,201205,,,A*7B
$GPRMC,145128.000,A,4440.1507,N,00111.7617,W,4.23,226.64,201205,,,A*73
$GPRMC,145129.000,A,4440.1499,N,00111.7629,W,4.29,227.31,201205,,,A*72
$GPRMC,145130.000,A,4440.1491,N,00111.7642,W,4.32,228.43,201205,,,A*7F
$GPRMC,145131.000,A,4440.1483,N,00111.7654,W,4.19,227.41,201205,,,A*7E
$GPRMC,145133.000,A,4440.1468,N,00111.7679,W,4.30,228.51,201205,,,A*73
$GPRMC,145134.000,A,4440.1460,N,00111.7692,W,4.24,226.16,201205,,,A*71
$GPRMC,145135.000,A,4440.1452,N,00111.7704,W,4.21,228.54,201205,,,A*72
$GPRMC,145136.000,A,4440.1445,N,00111.7716,W,4.22,226.26,201205,,,A*7C
$GPRMC,145138.000,A,4440.1429,N,00111.7741,W,4.31,227.59,201205,,,A*71
$GPRMC,145139.000,A,4440.1421,N,00111.7753,W,4.33,227.80,201205,,,A*7D
$GPRMC,145140.000,A,4440.1413,N,00111.7766,W,4.28,226.49,201205,,,A*7A
$GPRMC,145141.000,A,4440.1405,N,00111.7779,W,4.31,228.20,201205,,,A*7B
$GPRMC,145143.000,A,4440.1389,N,00111.7803,W,4.25,224.33,201205,,,A*73
$GPRMC,145144.000,A,4440.1381,N,00111.7815,W,4.35,225.52,201205,,,A*7C
$GPRMC,145145.000,A,4440.1373,N,00111.7828,W,4.40,225.93,201205,,,A*71
$GPRMC,145146.000,A,4440.1364,N,00111.7840,W,4.45,225.49,201205,,,A*78
$GPRMC,145148.000,A,4440.1347,N,00111.7864,W,4.43,222.96,201205,,,A*72
$GPRMC,145149.000,A,4440.1338,N,00111.7877,W,4.38,224.55,201205,,,A*7C
$GPRMC,145150.000,A,4440.1330,N,00111.7888,W,4.45,222.43,201205,,,A*77
$GPRMC,145151.000,A,4440.1321,N,00111.7900,W,4.48,221.61,201205,,,A*79
$GPRMC,145153.000,A,4440.1302,N,00111.7923,W,4.44,220.23,201205,,,A*70
$GPRMC,145154.000,A,4440.1293,N,00111.7934,W,4.42,219.27,201205,,,A*70
$GPRMC,145155.000,A,4440.1284,N,00111.7946,W,4.40,220.37,201205,,,A*7B
$GPRMC,145156.000,A,4440.1275,N,00111.7957,W,4.45,219.86,201205,,,A*73
$GPRMC,145158.000,A,4440.1256,N,00111.7979,W,4.48,219.83,201205,,,A*78
$GPRMC,145159.000,A,4440.1246,N,00111.7990,W,4.43,216.10,201205,,,A*71
$GPRMC,145200.000,A,4440.1237,N,00111.8000,W,4.44,214.61,201205,,,A*74
$GPRMC,145201.000,A,4440.1226,N,00111.8011,W,4.52,215.02,201205,,,A*76
$GPRMC,145203.000,A,4440.1207,N,00111.8032,W,4.39,216.36,201205,,,A*7F
$GPRMC,145204.000,A,4440.1197,N,00111.8042,W,4.43,219.98,201205,,,A*73
$GPRMC,145205.000,A,4440.1188,N,00111.8054,W,4.49,220.05,201205,,,A*7F
$GPRMC,145206.000,A,4440.1179,N,00111.8065,W,4.35,219.91,201205,,,A*7C
$GPRMC,145208.000,A,4440.1161,N,00111.8088,W,4.43,221.55,201205,,,A*7A
$GPRMC,145209.000,A,4440.1152,N,00111.8099,W,4.32,220.25,201205,,,A*7B
$GPRMC,145210.000,A,4440.1143,N,00111.8110,W,4.29,222.25,201205,,,A*7B
$GPRMC,145211.000,A,4440.1135,N,00111.8122,W,4.29,223.23,201205,,,A*7D
$GPRMC,145213.000,A,4440.1118,N,00111.8146,W,4.27,224.67,201205,,,A*7B
$GPRMC,145214.000,A,4440.1110,N,00111.8158,W,4.25,227.74,201205,,,A*78
$GPRMC,145215.000,A,4440.1102,N,00111.8170,W,4.25,226.81,201205,,,A*7B
$GPRMC,145216.000,A,4440.1094,N,00111.8182,W,4.25,226.90,201205,,,A*7B
$GPRMC,145218.000,A,4440.1078,N,00111.8207,W,4.32,227.67,201205,,,A*76
$GPRMC,145219.000,A,4440.1071,N,00111.8220,W,4.29,227.23,201205,,,A*71
$GPRMC,145220.000,A,4440.1063,N,00111.8233,W,4.25,228.70,201205,,,A*7F
$GPRMC,145221.000,A,4440.1055,N,00111.8245,W,4.24,228.08,201205,,,A*74
$GPRMC,145223.000,A,4440.1039,N,00111.8270,W,4.21,226.59,201205,,,A*75
$GPRMC,145224.000,A,4440.1031,N,00111.8282,W,4.16,224.21,201205,,,A*7E
$GPRMC,145225.000,A,4440.1023,N,00111.8293,W,4.27,224.67,201205,,,A*7C
$GPRMC,145226.000,A,4440.1015,N,00111.8305,W,4.23,224.39,201205,,,A*7B
$GPRMC,145228.000,A,4440.0999,N,00111.8329,W,4.22,226.34,201205,,,A*79
$GPRMC,145229.000,A,4440.0991,N,00111.8341,W,4.24,227.72,201205,,,A*7B
$GPRMC,145230.000,A,4440.0983,N,00111.8354,W,4.25,230.20,201205,,,A*74
$GPRMC,145231.000,A,4440.0976,N,00111.8367,W,4.22,230.38,201205,,,A*71
$GPRMC,145233.000,A,4440.0961,N,00111.8392,W,4.37,227.60,201205,,,A*70
$GPRMC,145234.000,A,4440.0952,N,00111.8405,W,4.42,225.85,201205,,,A*75
$GPRMC,145235.000,A,4440.0944,N,00111.8417,W,4.35,223.18,201205,,,A*72
$GPRMC,145236.000,A,4440.0935,N,00111.8428,W,4.29,219.11,201205,,,A*76
$GPRMC,145238.000,A,4440.0917,N,00111.8450,W,4.28,218.49,201205,,,A*7A
$GPRMC,145239.000,A,4440.0908,N,00111.8460,W,4.24,216.02,201205,,,A*7B
$GPRMC,145240.000,A,4440.0898,N,00111.8470,W,4.19,216.35,201205,,,A*76
$GPRMC,145241.000,A,4440.0889,N,00111.8480,W,4.26,215.80,201205,,,A*79
$GPRMC,145243.000,A,4440.0870,N,00111.8499,W,4.18,216.02,201205,,,A*71
$GPRMC,145244.000,A,4440.0861,N,00111.8509,W,4.18,214.37,201205,,,A*7A
$GPRMC,145245.000,A,4440.0851,N,00111.8518,W,4.25,216.07,201205,,,A*77
$GPRMC,145246.000,A,4440.0842,N,00111.8528,W,4.26,217.47,201205,,,A*73
$GPRMC,145248.000,A,4440.0824,N,00111.8549,W,4.17,218.17,201205,,,A*72
$GPRMC,145249.000,A,4440.0815,N,00111.8559,W,4.22,219.91,201205,,,A*79
$GPRMC,145250.000,A,4440.0806,N,00111.8570,W,4.20,219.61,201205,,,A*75
$GPRMC,145251.000,A,4440.0798,N,00111.8581,W,4.18,223.34,201205,,,A*70
$GPRMC,145253.000,A,4440.0781,N,00111.8603,W,4.22,221.14,201205,,,A*7A
$GPRMC,145254.000,A,4440.0772,N,00111.8615,W,4.22,221.68,201205,,,A*7D
$GPRMC,145255.000,A,4440.0764,N,00111.8626,W,4.26,221.99,201205,,,A*71
$GPRMC,145256.000,A,4440.0755,N,00111.8637,W,4.31,220.46,201205,,,A*75
$GPRMC,145258.000,A,4440.0736,N,00111.8659,W,4.44,213.77,201205,,,A*76
$GPRMC,145259.000,A,4440.0726,N,00111.8668,W,4.41,211.48,201205,,,A*7F
$GPRMC,145300.000,A,4440.0716,N,00111.8677,W,4.45,213.42,201205,,,A*73
$GPRMC,145301.000,A,4440.0706,N,00111.8687,W,4.55,214.87,201205,,,A*73
$GPRMC,145303.000,A,4440.0685,N,00111.8707,W,4.50,213.84,201205,,,A*73
$GPRMC,145304.000,A,4440.0675,N,00111.8717,W,4.59,215.50,201205,,,A*7C
$GPRMC,145305.000,A,4440.0665,N,00111.8728,W,4.56,216.13,201205,,,A*7B
$GPRMC,145306.000,A,4440.0655,N,00111.8738,W,4.55,217.85,201205,,,A*77
$GPRMC,145308.000,A,4440.0635,N,00111.8761,W,4.63,217.05,201205,,,A*7E
$GPRMC,145309.000,A,4440.0625,N,00111.8772,W,4.66,215.90,201205,,,A*77
$GPRMC,145310.000,A,4440.0614,N,00111.8782,W,4.64,215.08,201205,,,A*71
$GPRMC,145311.000,A,4440.0604,N,00111.8793,W,4.72,215.80,201205,,,A*76
$GPRMC,145313.000,A,4440.0583,N,00111.8816,W,4.82,217.68,201205,,,A*71
$GPRMC,145314.000,A,4440.0572,N,00111.8827,W,4.88,216.69,201205,,,A*70
$GPRMC,145315.000,A,4440.0561,N,00111.8839,W,4.83,218.06,201205,,,A*70
$GPRMC,145316.000,A,4440.0551,N,00111.8851,W,4.92,217.56,201205,,,A*74
$GPRMC,145318.000,A,4440.0530,N,00111.8874,W,4.77,217.02,201205,,,A*70
$GPRMC,145319.000,A,4440.0519,N,00111.8885,W,4.80,215.63,201205,,,A*79
$GPRMC,145320.000,A,4440.0509,N,00111.8896,W,4.77,216.64,201205,,,A*7C
$GPRMC,145321.000,A,4440.0498,N,00111.8908,W,4.83,215.86,201205,,,A*76
$GPRMC,145323.000,A,4440.0477,N,00111.8931,W,4.83,219.07,201205,,,A*7A
$GPRMC,145324.000,A,4440.0467,N,00111.8943,W,4.84,216.90,201205,,,A*7F
$GPRMC,145325.000,A,4440.0456,N,00111.8954,W,4.86,218.56,201205,,,A*7C
$GPRMC,145326.000,A,4440.0446,N,00111.8966,W,4.82,216.01,201205,,,A*77
$GPRMC,145328.000,A,4440.0424,N,00111.8988,W,4.76,215.03,201205,,,A*77
$GPRMC,145329.000,A,4440.0413,N,00111.8999,W,4.80,213.89,201205,,,A*7F
$GPRMC,145330.000,A,4440.0402,N,00111.9009,W,4.75,212.68,201205,,,A*72
$GPRMC,145331.000,A,4440.0391,N,00111.9019,W,4.77,212.03,201205,,,A*70
$GPRMC,145333.000,A,4440.0370,N,00111.9039,W,4.68,210.99,201205,,,A*70
$GPRMC,145334.000,A,4440.0359,N,00111.9049,W,4.71,215.59,201205,,,A*7A
$GPRMC,145335.000,A,4440.0348,N,00111.9060,W,4.73,215.59,201205,,,A*72
$GPRMC,145336.000,A,4440.0338,N,00111.9071,W,4.78,218.12,201205,,,A*7F
$GPRMC,145338.000,A,4440.0318,N,00111.9095,W,4.80,221.73,201205,,,A*73
$GPRMC,145339.000,A,4440.0308,N,00111.9108,W,4.80,220.94,201205,,,A*7E
$GPRMC,145340.000,A,4440.0298,N,00111.9120,W,4.72,216.78,201205,,,A*78
$GPRMC,145341.000,A,4440.0288,N,00111.9131,W,4.78,216.39,201205,,,A*77
$GPRMC,145343.000,A,4440.0266,N,00111.9153,W,4.81,213.99,201205,,,A*78
$GPRMC,145344.000,A,4440.0256,N,00111.9164,W,4.77,217.51,201205,,,A*71
$GPRMC,145345.000,A,4440.0245,N,00111.9175,W,4.77,216.47,201205,,,A*74
$GPRMC,145346.000,A,4440.0235,N,00111.9187,W,4.76,216.74,201205,,,A*7C
$GPRMC,145348.000,A,4440.0215,N,00111.9209,W,4.70,217.48,201205,,,A*7D
$GPRMC,145349.000,A,4440.0204,N,00111.9221,W,4.81,215.64,201205,,,A*74
$GPRMC,145350.000,A,4440.0193,N,00111.9231,W,4.81,213.26,201205,,,A*70
$GPRMC,145351.000,A,4440.0182,N,00111.9242,W,4.85,211.93,201205,,,A*7D
$GPRMC,145353.000,A,4440.0160,N,00111.9263,W,4.88,215.22,201205,,,A*73
$GPRMC,145354.000,A,4440.0149,N,00111.9274,W,4.85,215.16,201205,,,A*73
$GPRMC,145355.000,A,4440.0138,N,00111.9285,W,4.96,215.54,201205,,,A*7E
$GPRMC,145356.000,A,4440.0127,N,00111.9296,W,4.99,216.37,201205,,,A*78
$GPRMC,145358.000,A,4440.0105,N,00111.9320,W,5.04,217.58,201205,,,A*77
$GPRMC,145359.000,A,4440.0094,N,00111.9333,W,5.08,219.47,201205,,,A*71
$GPRMC,145400.000,A,4440.0084,N,00111.9346,W,5.03,219.47,201205,,,A*72
$GPRMC,145401.000,A,4440.0073,N,00111.9358,W,5.05,218.99,201205,,,A*70
$GPRMC,145403.000,A,4440.0051,N,00111.9383,W,5.12,217.44,201205,,,A*7D
$GPRMC,145404.000,A,4440.0040,N,00111.9395,W,5.12,214.74,201205,,,A*7D
$GPRMC,145405.000,A,4440.0028,N,00111.9406,W,5.10,212.94,201205,,,A*75
$GPRMC,145406.000,A,4440.0017,N,00111.9417,W,5.09,213.56,201205,,,A*7D
$GPRMC,145408.000,A,4439.9994,N,00111.9440,W,5.09,212.88,201205,,,A*76
$GPRMC,145409.000,A,4439.9982,N,00111.9451,W,5.02,215.92,201205,,,A*77
$GPRMC,145410.000,A,4439.9971,N,00111.9463,W,4.99,216.44,201205,,,A*79
$GPRMC,145411.000,A,4439.9960,N,00111.9475,W,4.88,218.86,201205,,,A*7F
$GPRMC,145413.000,A,4439.9940,N,00111.9499,W,4.86,217.75,201205,,,A*70
$GPRMC,145414.000,A,4439.9929,N,00111.9510,W,4.76,218.24,201205,,,A*7C
$GPRMC,145415.000,A,4439.9919,N,00111.9522,W,4.90,216.63,201205,,,A*7A
$GPRMC,145416.000,A,4439.9908,N,00111.9533,W,4.79,214.44,201205,,,A*79
$GPRMC,145418.000,A,4439.9886,N,00111.9553,W,4.75,209.82,201205,,,A*7C
$GPRMC,145419.000,A,4439.9875,N,00111.9562,W,4.73,210.25,201205,,,A*70
$GPRMC,145420.000,A,4439.9863,N,00111.9572,W,4.73,212.00,201205,,,A*79
$GPRMC,145421.000,A,4439.9852,N,00111.9582,W,4.73,212.54,201205,,,A*74
$GPRMC,145423.000,A,4439.9832,N,00111.9604,W,4.69,215.51,201205,,,A*74
$GPRMC,145424.000,A,4439.9821,N,00111.9615,W,4.78,216.80,201205,,,A*7E
$GPRMC,145425.000,A,4439.9811,N,00111.9626,W,4.76,216.91,201205,,,A*72
$GPRMC,145426.000,A,4439.9800,N,00111.9637,W,4.80,215.43,201205,,,A*74
$GPRMC,145428.000,A,4439.9778,N,00111.9659,W,4.94,213.03,201205,,,A*75
$GPRMC,145429.000,A,4439.9767,N,00111.9670,W,4.86,212.79,201205,,,A*7E
$GPRMC,145430.000,A,4439.9756,N,00111.9680,W,4.95,212.87,201205,,,A*78
$GPRMC,145431.000,A,4439.9744,N,00111.9691,W,4.95,212.65,201205,,,A*76
$GPRMC,145433.000,A,4439.9722,N,00111.9712,W,4.92,213.91,201205,,,A*73
$GPRMC,145434.000,A,4439.9710,N,00111.9723,W,4.92,213.46,201205,,,A*7D
$GPRMC,145435.000,A,4439.9699,N,00111.9734,W,4.95,214.38,201205,,,A*73
$GPRMC,145436.000,A,4439.9688,N,00111.9745,W,4.95,213.56,201205,,,A*79
$GPRMC,145438.000,A,4439.9665,N,00111.9767,W,4.90,212.68,201205,,,A*7D
$GPRMC,145439.000,A,4439.9654,N,00111.9777,W,4.91,212.93,201205,,,A*7A
$GPRMC,145440.000,A,4439.9643,N,00111.9788,W,4.87,212.31,201205,,,A*7D
$GPRMC,145441.000,A,4439.9632,N,00111.9798,W,4.90,213.28,201205,,,A*74
$GPRMC,145443.000,A,4439.9609,N,00111.9819,W,4.82,213.53,201205,,,A*77
$GPRMC,145444.000,A,4439.9598,N,00111.9830,W,4.85,215.62,201205,,,A*73
$GPRMC,145445.000,A,4439.9588,N,00111.9841,W,4.77,217.21,201205,,,A*7D
$GPRMC,145446.000,A,4439.9577,N,00111.9853,W,4.88,217.88,201205,,,A*7E
$GPRMC,145448.000,A,4439.9556,N,00111.9876,W,4.77,216.38,201205,,,A*7E
$GPRMC,145449.000,A,4439.9546,N,00111.9887,W,4.82,216.13,201205,,,A*73
$GPRMC,145450.000,A,4439.9535,N,00111.9898,W,4.71,215.36,201205,,,A*79
$GPRMC,145451.000,A,4439.9525,N,00111.9909,W,4.72,214.35,201205,,,A*71
$GPRMC,145453.000,A,4439.9503,N,00111.9930,W,4.79,211.48,201205,,,A*79
$GPRMC,145454.000,A,4439.9492,N,00111.9940,W,4.70,211.54,201205,,,A*74
$GPRMC,145455.000,A,4439.9481,N,00111.9949,W,4.75,207.96,201205,,,A*72
$GPRMC,145456.000,A,4439.9469,N,00111.9959,W,4.80,213.02,201205,,,A*74
$GPRMC,145458.000,A,4439.9448,N,00111.9979,W,4.83,214.66,201205,,,A*7D
$GPRMC,145459.000,A,4439.9437,N,00111.9990,W,4.82,217.01,201205,,,A*70
$GPRMC,145500.000,A,4439.9427,N,00112.0002,W,4.78,217.81,201205,,,A*79
$GPRMC,145501.000,A,4439.9416,N,00112.0014,W,4.82,218.47,201205,,,A*7D
$GPRMC,145503.000,A,4439.9396,N,00112.0038,W,4.72,220.23,201205,,,A*78
$GPRMC,145504.000,A,4439.9386,N,00112.0050,W,4.75,220.97,201205,,,A*78
$GPRMC,145505.000,A,4439.9377,N,00112.0062,W,4.69,219.92,201205,,,A*74
$GPRMC,145506.000,A,4439.9367,N,00112.0074,W,4.76,219.54,201205,,,A*75
$GPRMC,145508.000,A,4439.9347,N,00112.0099,W,4.80,220.31,201205,,,A*7A
$GPRMC,145509.000,A,4439.9337,N,00112.0111,W,4.77,219.46,201205,,,A*7F
$GPRMC,145510.000,A,4439.9327,N,00112.0123,W,4.85,221.90,201205,,,A*7A
$GPRMC,145511.000,A,4439.9317,N,00112.0136,W,4.78,222.62,201205,,,A*70
$GPRMC,145513.000,A,4439.9298,N,00112.0161,W,4.74,221.98,201205,,,A*7C
$GPRMC,145514.000,A,4439.9288,N,00112.0174,W,4.76,223.77,201205,,,A*7F
$GPRMC,145515.000,A,4439.9279,N,00112.0187,W,4.85,223.35,201205,,,A*76
$GPRMC,145516.000,A,4439.9269,N,00112.0200,W,4.61,220.92,201205,,,A*7C
$GPRMC,145518.000,A,4439.9251,N,00112.0224,W,4.65,221.59,201205,,,A*7D
$GPRMC,145519.000,A,4439.9241,N,00112.0236,W,4.69,219.53,201205,,,A*73
$GPRMC,145520.000,A,4439.9231,N,00112.0248,W,4.64,218.78,201205,,,A*72
$GPRMC,145521.000,A,4439.9221,N,00112.0259,W,4.58,214.09,201205,,,A*77
$GPRMC,145523.000,A,4439.9201,N,00112.0280,W,4.68,216.28,201205,,,A*71
$GPRMC,145524.000,A,4439.9190,N,00112.0291,W,4.72,216.70,201205,,,A*7B
$GPRMC,145525.000,A,4439.9180,N,00112.0302,W,4.67,214.84,201205,,,A*7D
$GPRMC,145526.000,A,4439.9169,N,00112.0313,W,4.79,218.38,201205,,,A*7D
$GPRMC,145528.000,A,4439.9150,N,00112.0337,W,4.72,219.49,201205,,,A*73
$GPRMC,145529.000,A,4439.9140,N,00112.0349,W,4.79,220.86,201205,,,A*78
$GPRMC,145530.000,A,4439.9130,N,00112.0362,W,4.82,220.25,201205,,,A*73
$GPRMC,145531.000,A,4439.9120,N,00112.0374,W,4.75,219.00,201205,,,A*71
$GPRMC,145533.000,A,4439.9099,N,00112.0399,W,4.95,219.86,201205,,,A*73
$GPRMC,145534.000,A,4439.9089,N,00112.0411,W,4.70,216.72,201205,,,A*7D
$GPRMC,145535.000,A,4439.9079,N,00112.0423,W,4.88,218.81,201205,,,A*77
$GPRMC,145536.000,A,4439.9068,N,00112.0435,W,4.86,218.33,201205,,,A*74
$GPRMC,145538.000,A,4439.9048,N,00112.0458,W,4.71,221.76,201205,,,A*70
$GPRMC,145539.000,A,4439.9038,N,00112.0470,W,4.80,219.66,201205,,,A*78
$GPRMC,145540.000,A,4439.9028,N,00112.0482,W,4.75,218.48,201205,,,A*7D
$GPRMC,145541.000,A,4439.9018,N,00112.0494,W,4.59,221.48,201205,,,A*7C
$GPRMC,145543.000,A,4439.8999,N,00112.0517,W,4.62,218.91,201205,,,A*73
$GPRMC,145544.000,A,4439.8989,N,00112.0529,W,4.68,220.05,201205,,,A*74
$GPRMC,145545.000,A,4439.8979,N,00112.0540,W,4.66,219.38,201205,,,A*7F
$GPRMC,145546.000,A,4439.8969,N,00112.0552,W,4.76,220.44,201205,,,A*7E
$GPRMC,145548.000,A,4439.8950,N,00112.0577,W,4.75,221.64,201205,,,A*7D
$GPRMC,145549.000,A,4439.8940,N,00112.0590,W,4.85,220.23,201205,,,A*79
$GPRMC,145550.000,A,4439.8930,N,00112.0602,W,4.82,219.90,201205,,,A*7B
$GPRMC,145551.000,A,4439.8920,N,00112.0614,W,4.66,217.72,201205,,,A*74
$GPRMC,145553.000,A,4439.8899,N,00112.0637,W,4.87,217.09,201205,,,A*77
$GPRMC,145554.000,A,4439.8888,N,00112.0647,W,4.74,211.43,201205,,,A*73
$GPRMC,145555.000,A,4439.8877,N,00112.0658,W,4.88,214.46,201205,,,A*7F
$GPRMC,145556.000,A,4439.8866,N,00112.0669,W,4.92,213.27,201205,,,A*75
$GPRMC,145558.000,A,4439.8843,N,00112.0689,W,4.98,215.19,201205,,,A*73
$GPRMC,145559.000,A,4439.8832,N,00112.0700,W,4.89,212.23,201205,,,A*7A
$GPRMC,145600.000,A,4439.8820,N,00112.0711,W,4.90,212.45,201205,,,A*7E
$GPRMC,145601.000,A,4439.8809,N,00112.0721,W,5.08,213.88,201205,,,A*77
$GPRMC,145603.000,A,4439.8786,N,00112.0744,W,5.00,214.76,201205,,,A*70
$GPRMC,145604.000,A,4439.8775,N,00112.0754,W,4.96,211.10,201205,,,A*71
$GPRMC,145605.000,A,4439.8763,N,00112.0764,W,4.99,210.64,201205,,,A*79
$GPRMC,145606.000,A,4439.8751,N,00112.0775,W,5.02,214.76,201205,,,A*7F
$GPRMC,145608.000,A,4439.8729,N,00112.0798,W,4.94,215.57,201205,,,A*71
$GPRMC,145609.000,A,4439.8718,N,00112.0809,W,4.89,215.91,201205,,,A*73
$GPRMC,145610.000,A,4439.8707,N,00112.0821,W,5.08,214.50,201205,,,A*7B
$GPRMC,145611.000,A,4439.8696,N,00112.0832,W,4.93,212.74,201205,,,A*72
$GPRMC,145613.000,A,4439.8673,N,00112.0853,W,4.86,214.68,201205,,,A*73
$GPRMC,145614.000,A,4439.8662,N,00112.0865,W,4.92,217.29,201205,,,A*72
$GPRMC,145615.000,A,4439.8652,N,00112.0876,W,4.92,216.03,201205,,,A*7B
$GPRMC,145616.000,A,4439.8641,N,00112.0888,W,4.88,220.54,201205,,,A*77
$GPRMC,145618.000,A,4439.8621,N,00112.0915,W,5.04,220.78,201205,,,A*71
$GPRMC,145619.000,A,4439.8611,N,00112.0928,W,4.98,220.95,201205,,,A*7A
$GPRMC,145620.000,A,4439.8601,N,00112.0941,W,4.96,221.75,201205,,,A*7F
$GPRMC,145621.000,A,4439.8590,N,00112.0954,W,4.93,221.85,201205,,,A*7B
$GPRMC,145623.000,A,4439.8570,N,00112.0979,W,4.98,220.40,201205,,,A*7B
$GPRMC,145624.000,A,4439.8559,N,00112.0992,W,5.00,218.88,201205,,,A*7D
$GPRMC,145625.000,A,4439.8549,N,00112.1004,W,4.85,217.71,201205,,,A*7F
$GPRMC,145626.000,A,4439.8538,N,00112.1016,W,4.86,219.37,201205,,,A*76
$GPRMC,145628.000,A,4439.8518,N,00112.1041,W,4.76,218.63,201205,,,A*77
$GPRMC,145629.000,A,4439.8508,N,00112.1053,W,4.83,220.43,201205,,,A*77
$GPRMC,145630.000,A,4439.8498,N,00112.1065,W,4.88,219.36,201205,,,A*71
$GPRMC,145631.000,A,4439.8487,N,00112.1077,W,4.95,218.21,201205,,,A*76
$GPRMC,145633.000,A,4439.8466,N,00112.1101,W,4.94,219.11,201205,,,A*78
$GPRMC,145634.000,A,4439.8456,N,00112.1114,W,5.03,220.86,201205,,,A*73
$GPRMC,145635.000,A,4439.8445,N,00112.1126,W,5.03,218.61,201205,,,A*73
$GPRMC,145636.000,A,4439.8434,N,00112.1139,W,5.03,219.40,201205,,,A*7A
$GPRMC,145638.000,A,4439.8413,N,00112.1164,W,5.04,218.01,201205,,,A*7A
$GPRMC,145639.000,A,4439.8403,N,00112.1177,W,5.03,222.08,201205,,,A*7F
$GPRMC,145640.000,A,4439.8392,N,00112.1190,W,4.98,220.09,201205,,,A*77
$GPRMC,145641.000,A,4439.8382,N,00112.1203,W,5.05,221.78,201205,,,A*7C
$GPRMC,145643.000,A,4439.8362,N,00112.1230,W,5.01,223.06,201205,,,A*7F
$GPRMC,145644.000,A,4439.8352,N,00112.1243,W,4.91,221.82,201205,,,A*79
$GPRMC,145645.000,A,4439.8342,N,00112.1256,W,5.12,219.50,201205,,,A*73
$GPRMC,145646.000,A,4439.8331,N,00112.1269,W,5.15,217.87,201205,,,A*7B
$GPRMC,145648.000,A,4439.8309,N,00112.1293,W,5.04,218.26,201205,,,A*7F
$GPRMC,145649.000,A,4439.8298,N,00112.1306,W,5.11,218.24,201205,,,A*7C
$GPRMC,145650.000,A,4439.8287,N,00112.1318,W,5.11,218.65,201205,,,A*70
$GPRMC,145651.000,A,4439.8276,N,00112.1331,W,5.18,220.96,201205,,,A*7A
$GPRMC,145653.000,A,4439.8255,N,00112.1357,W,5.19,219.04,201205,,,A*79
$GPRMC,145654.000,A,4439.8244,N,00112.1371,W,5.23,220.82,201205,,,A*77
$GPRMC,145655.000,A,4439.8233,N,00112.1385,W,5.31,222.89,201205,,,A*77
$GPRMC,145656.000,A,4439.8222,N,00112.1399,W,5.34,224.42,201205,,,A*7D
$GPRMC,145658.000,A,4439.8202,N,00112.1429,W,5.30,228.21,201205,,,A*70
$GPRMC,145659.000,A,4439.8192,N,00112.1444,W,5.41,225.80,201205,,,A*70
$GPRMC,145700.000,A,4439.8182,N,00112.1459,W,5.42,223.55,201205,,,A*7D
$GPRMC,145701.000,A,4439.8171,N,00112.1473,W,5.37,219.30,201205,,,A*70
$GPRMC,145703.000,A,4439.8148,N,00112.1500,W,5.44,219.83,201205,,,A*71
$GPRMC,145704.000,A,4439.8137,N,00112.1514,W,5.47,221.62,201205,,,A*7C
$GPRMC,145705.000,A,4439.8125,N,00112.1529,W,5.56,220.74,201205,,,A*76
$GPRMC,145706.000,A,4439.8114,N,00112.1543,W,5.43,221.33,201205,,,A*7D
$GPRMC,145708.000,A,4439.8091,N,00112.1571,W,5.48,221.22,201205,,,A*75
$GPRMC,145709.000,A,4439.8080,N,00112.1585,W,5.45,219.46,201205,,,A*7B
$GPRMC,145710.000,A,4439.8068,N,00112.1599,W,5.56,219.21,201205,,,A*7B
$GPRMC,145711.000,A,4439.8056,N,00112.1613,W,5.50,218.16,201205,,,A*75
$GPRMC,145713.000,A,4439.8033,N,00112.1641,W,5.51,221.06,201205,,,A*79
$GPRMC,145714.000,A,4439.8022,N,00112.1655,W,5.62,222.38,201205,,,A*75
$GPRMC,145715.000,A,4439.8011,N,00112.1670,W,5.52,224.18,201205,,,A*74
$GPRMC,145716.000,A,4439.8000,N,00112.1685,W,5.57,221.84,201205,,,A*78
$GPRMC,145718.000,A,4439.7978,N,00112.1715,W,5.48,223.01,201205,,,A*76
$GPRMC,145719.000,A,4439.7967,N,00112.1729,W,5.52,222.08,201205,,,A*75
$GPRMC,145720.000,A,4439.7956,N,00112.1744,W,5.34,221.76,201205,,,A*7C
$GPRMC,145721.000,A,4439.7945,N,00112.1757,W,5.38,218.82,201205,,,A*70
$GPRMC,145723.000,A,4439.7922,N,00112.1784,W,5.36,221.17,201205,,,A*75
$GPRMC,145724.000,A,4439.7911,N,00112.1799,W,5.59,222.05,201205,,,A*77
$GPRMC,145725.000,A,4439.7900,N,00112.1813,W,5.37,222.62,201205,,,A*72
$GPRMC,145726.000,A,4439.7889,N,00112.1827,W,5.31,221.57,201205,,,A*75
$GPRMC,145728.000,A,4439.7868,N,00112.1856,W,5.33,223.42,201205,,,A*76
$GPRMC,145729.000,A,4439.7858,N,00112.1871,W,5.46,225.90,201205,,,A*7A
$GPRMC,145730.000,A,4439.7848,N,00112.1887,W,5.40,227.18,201205,,,A*7E
$GPRMC,145731.000,A,4439.7838,N,00112.1902,W,5.29,228.10,201205,,,A*7C
$GPRMC,145733.000,A,4439.7819,N,00112.1934,W,5.33,229.01,201205,,,A*72
$GPRMC,145734.000,A,4439.7809,N,00112.1950,W,5.44,226.73,201205,,,A*7C
$GPRMC,145735.000,A,4439.7799,N,00112.1965,W,5.31,226.64,201205,,,A*79
$GPRMC,145736.000,A,4439.7789,N,00112.1980,W,5.15,225.74,201205,,,A*74
$GPRMC,145738.000,A,4439.7769,N,00112.2009,W,5.25,226.47,201205,,,A*7F
$GPRMC,145739.000,A,4439.7759,N,00112.2024,W,5.12,225.71,201205,,,A*70
$GPRMC,145740.000,A,4439.7750,N,00112.2038,W,5.16,225.76,201205,,,A*79
$GPRMC,145741.000,A,4439.7740,N,00112.2053,W,4.98,225.43,201205,,,A*75
$GPRMC,145743.000,A,4439.7721,N,00112.2081,W,4.99,227.30,201205,,,A*78
$GPRMC,145744.000,A,4439.7712,N,00112.2095,W,4.85,226.67,201205,,,A*74
$GPRMC,145745.000,A,4439.7703,N,00112.2109,W,4.86,224.88,201205,,,A*71
$GPRMC,145746.000,A,4439.7693,N,00112.2123,W,4.85,226.43,201205,,,A*74
$GPRMC,145748.000,A,4439.7675,N,00112.2150,W,4.79,228.06,201205,,,A*7A
$GPRMC,145749.000,A,4439.7666,N,00112.2164,W,4.70,225.97,201205,,,A*72
$GPRMC,145750.000,A,4439.7658,N,00112.2178,W,4.52,231.49,201205,,,A*7C
$GPRMC,145751.000,A,4439.7651,N,00112.2192,W,4.46,240.47,201205,,,A*7D
$GPRMC,145753.000,A,4439.7641,N,00112.2222,W,4.23,243.35,201205,,,A*73
$GPRMC,145754.000,A,4439.7636,N,00112.2237,W,4.25,242.12,201205,,,A*72
$GPRMC,145755.000,A,4439.7631,N,00112.2251,W,3.95,242.93,201205,,,A*71
$GPRMC,145756.000,A,4439.7625,N,00112.2265,W,3.93,236.38,201205,,,A*74
$GPRMC,145758.000,A,4439.7614,N,00112.2291,W,3.87,238.99,201205,,,A*73
$GPRMC,145759.000,A,4439.7609,N,00112.2304,W,3.98,237.43,201205,,,A*75
$GPRMC,145800.000,A,4439.7603,N,00112.2317,W,4.07,238.03,201205,,,A*74
$GPRMC,145801.000,A,4439.7597,N,00112.2331,W,4.23,236.16,201205,,,A*73
$GPRMC,145803.000,A,4439.7582,N,00112.2359,W,4.65,230.50,201205,,,A*7D
$GPRMC,145804.000,A,4439.7574,N,00112.2373,W,4.63,227.41,201205,,,A*7B
$GPRMC,145805.000,A,4439.7565,N,00112.2386,W,4.75,225.26,201205,,,A*74
$GPRMC,145806.000,A,4439.7556,N,00112.2400,W,4.85,226.12,201205,,,A*75
$GPRMC,145808.000,A,4439.7537,N,00112.2426,W,4.84,223.80,201205,,,A*77
$GPRMC,145809.000,A,4439.7528,N,00112.2440,W,4.92,223.25,201205,,,A*70
$GPRMC,145810.000,A,4439.7518,N,00112.2453,W,4.94,222.35,201205,,,A*7F
$GPRMC,145811.000,A,4439.7508,N,00112.2466,W,5.13,224.12,201205,,,A*74
$GPRMC,145813.000,A,4439.7487,N,00112.2494,W,5.14,222.25,201205,,,A*78
$GPRMC,145814.000,A,4439.7477,N,00112.2508,W,5.18,222.70,201205,,,A*78
$GPRMC,145815.000,A,4439.7466,N,00112.2522,W,5.15,224.01,201205,,,A*7C
$GPRMC,145816.000,A,4439.7456,N,00112.2536,W,5.14,224.12,201205,,,A*7A
$GPRMC,145818.000,A,4439.7436,N,00112.2564,W,5.07,224.44,201205,,,A*74
$GPRMC,145819.000,A,4439.7426,N,00112.2578,W,5.12,223.80,201205,,,A*72
$GPRMC,145820.000,A,4439.7416,N,00112.2592,W,5.19,224.15,201205,,,A*7F
$GPRMC,145821.000,A,4439.7406,N,00112.2607,W,5.18,223.77,201205,,,A*72
$GPRMC,145823.000,A,4439.7386,N,00112.2636,W,5.14,226.96,201205,,,A*7B
$GPRMC,145824.000,A,4439.7376,N,00112.2651,W,5.19,226.94,201205,,,A*7D
$GPRMC,145825.000,A,4439.7367,N,00112.2666,W,5.17,227.70,201205,,,A*7D
$GPRMC,145826.000,A,4439.7357,N,00112.2681,W,5.08,225.82,201205,,,A*75
$GPRMC,145828.000,A,4439.7338,N,00112.2710,W,5.14,225.10,201205,,,A*7D
$GPRMC,145829.000,A,4439.7328,N,00112.2724,W,5.12,225.11,201205,,,A*7D
$GPRMC,145830.000,A,4439.7318,N,00112.2739,W,5.10,225.64,201205,,,A*7A
$GPRMC,145831.000,A,4439.7308,N,00112.2753,W,5.01,226.20,201205,,,A*75
$GPRMC,145833.000,A,4439.7289,N,00112.2781,W,5.07,225.82,201205,,,A*7D
$GPRMC,145834.000,A,4439.7279,N,00112.2795,W,5.04,224.15,201205,,,A*7C
$GPRMC,145835.000,A,4439.7269,N,00112.2809,W,5.01,224.39,201205,,,A*7D
$GPRMC,145836.000,A,4439.7259,N,00112.2823,W,4.94,224.19,201205,,,A*7A
$GPRMC,145838.000,A,4439.7239,N,00112.2851,W,5.05,223.42,201205,,,A*77
$GPRMC,145839.000,A,4439.7229,N,00112.2864,W,4.94,223.05,201205,,,A*7B
$GPRMC,145840.000,A,4439.7219,N,00112.2878,W,4.96,222.80,201205,,,A*75
$GPRMC,145841.000,A,4439.7209,N,00112.2891,W,4.93,223.55,201205,,,A*7E
$GPRMC,145843.000,A,4439.7190,N,00112.2919,W,4.88,225.52,201205,,,A*75
$GPRMC,145844.000,A,4439.7180,N,00112.2933,W,4.92,224.22,201205,,,A*76
$GPRMC,145845.000,A,4439.7171,N,00112.2946,W,4.82,223.59,201205,,,A*71
$GPRMC,145846.000,A,4439.7161,N,00112.2959,W,4.74,222.55,201205,,,A*79
$GPRMC,145848.000,A,4439.7142,N,00112.2985,W,4.77,224.46,201205,,,A*70
$GPRMC,145849.000,A,4439.7133,N,00112.2998,W,4.73,225.32,201205,,,A*7D
$GPRMC,145850.000,A,4439.7124,N,00112.3012,W,4.73,226.11,201205,,,A*7B
$GPRMC,145851.000,A,4439.7115,N,00112.3026,W,4.71,226.64,201205,,,A*7F
$GPRMC,145853.000,A,4439.7097,N,00112.3053,W,4.71,228.19,201205,,,A*70
$GPRMC,145854.000,A,4439.7089,N,00112.3067,W,4.64,227.62,201205,,,A*78
$GPRMC,145855.000,A,4439.7080,N,00112.3081,W,4.64,228.50,201205,,,A*76
$GPRMC,145856.000,A,4439.7072,N,00112.3095,W,4.62,230.11,201205,,,A*77
$GPRMC,145858.000,A,4439.7056,N,00112.3124,W,4.56,230.87,201205,,,A*7C
$GPRMC,145859.000,A,4439.7048,N,00112.3138,W,4.56,232.01,201205,,,A*73
$GPRMC,145900.000,A,4439.7040,N,00112.3152,W,4.60,234.29,201205,,,A*73
$GPRMC,145901.000,A,4439.7033,N,00112.3167,W,4.61,232.63,201205,,,A*79
$GPRMC,145903.000,A,4439.7017,N,00112.3195,W,4.55,230.11,201205,,,A*70
$GPRMC,145904.000,A,4439.7009,N,00112.3209,W,4.58,228.11,201205,,,A*7A
$GPRMC,145905.000,A,4439.7001,N,00112.3222,W,4.60,224.91,201205,,,A*75
$GPRMC,145906.000,A,4439.6992,N,00112.3235,W,4.62,224.27,201205,,,A*7D
$GPRMC,145908.000,A,4439.6973,N,00112.3261,W,4.75,226.38,201205,,,A*77
$GPRMC,145909.000,A,4439.6965,N,00112.3275,W,4.64,226.48,201205,,,A*73
$GPRMC,145910.000,A,4439.6956,N,00112.3288,W,4.63,226.33,201205,,,A*72
$GPRMC,145911.000,A,4439.6947,N,00112.3301,W,4.57,225.59,201205,,,A*7B
$GPRMC,145913.000,A,4439.6929,N,00112.3327,W,4.67,225.34,201205,,,A*7D
$GPRMC,145914.000,A,4439.6920,N,00112.3341,W,4.71,227.38,201205,,,A*7A
$GPRMC,145915.000,A,4439.6912,N,00112.3354,W,4.62,226.17,201205,,,A*70
$GPRMC,145916.000,A,4439.6903,N,00112.3368,W,4.70,226.28,201205,,,A*73
$GPRMC,145918.000,A,4439.6885,N,00112.3395,W,4.67,226.00,201205,,,A*7C
$GPRMC,145919.000,A,4439.6876,N,00112.3408,W,4.75,225.84,201205,,,A*7E
$GPRMC,145920.000,A,4439.6867,N,00112.3421,W,4.65,225.28,201205,,,A*78
$GPRMC,145921.000,A,4439.6858,N,00112.3435,W,4.68,224.97,201205,,,A*78
$GPRMC,145923.000,A,4439.6840,N,00112.3461,W,4.63,224.25,201205,,,A*70
$GPRMC,145924.000,A,4439.6831,N,00112.3474,W,4.64,225.44,201205,,,A*74
$GPRMC,145925.000,A,4439.6822,N,00112.3486,W,4.61,223.30,201205,,,A*7A
$GPRMC,145926.000,A,4439.6813,N,00112.3499,W,4.62,224.25,201205,,,A*75
$GPRMC,145928.000,A,4439.6794,N,00112.3524,W,4.64,222.23,201205,,,A*7A
$GPRMC,145929.000,A,4439.6785,N,00112.3536,W,4.69,221.99,201205,,,A*77
$GPRMC,145930.000,A,4439.6775,N,00112.3548,W,4.64,220.52,201205,,,A*72
$GPRMC,145931.000,A,4439.6766,N,00112.3560,W,4.63,218.61,201205,,,A*77
$GPRMC,145933.000,A,4439.6746,N,00112.3584,W,4.71,219.54,201205,,,A*79
$GPRMC,145934.000,A,4439.6736,N,00112.3596,W,4.63,219.62,201205,,,A*7C
$GPRMC,145935.000,A,4439.6726,N,00112.3607,W,4.73,220.08,201205,,,A*70
$GPRMC,145936.000,A,4439.6716,N,00112.3619,W,4.65,218.57,201205,,,A*79
$GPRMC,145938.000,A,4439.6696,N,00112.3643,W,4.77,218.91,201205,,,A*78
$GPRMC,145939.000,A,4439.6686,N,00112.3654,W,4.80,216.56,201205,,,A*73
$GPRMC,145940.000,A,4439.6675,N,00112.3666,W,4.85,215.90,201205,,,A*7C
$GPRMC,145941.000,A,4439.6665,N,00112.3677,W,4.73,214.92,201205,,,A*76
$GPRMC,145943.000,A,4439.6644,N,00112.3700,W,4.82,220.08,201205,,,A*7C
$GPRMC,145944.000,A,4439.6634,N,00112.3713,W,4.86,222.04,201205,,,A*74
$GPRMC,145945.000,A,4439.6625,N,00112.3726,W,4.79,222.74,201205,,,A*74
$GPRMC,145946.000,A,4439.6615,N,00112.3739,W,4.85,222.25,201205,,,A*7D
$GPRMC,145948.000,A,4439.6595,N,00112.3765,W,5.01,223.38,201205,,,A*71
$GPRMC,145949.000,A,4439.6585,N,00112.3779,W,4.96,223.40,201205,,,A*7C
$GPRMC,145950.000,A,4439.6576,N,00112.3792,W,4.95,223.34,201205,,,A*7D
$GPRMC,145951.000,A,4439.6566,N,00112.3806,W,4.97,222.38,201205,,,A*70
$GPRMC,145953.000,A,4439.6546,N,00112.3833,W,5.17,223.37,201205,,,A*71
$GPRMC,145954.000,A,4439.6536,N,00112.3847,W,4.99,223.06,201205,,,A*77
$GPRMC,145955.000,A,4439.6526,N,00112.3861,W,4.98,226.00,201205,,,A*71
$GPRMC,145956.000,A,4439.6516,N,00112.3875,W,5.02,223.07,201205,,,A*74
$GPRMC,145958.000,A,4439.6496,N,00112.3904,W,5.10,223.90,201205,,,A*79
$GPRMC,145959.000,A,4439.6487,N,00112.3917,W,4.89,224.79,201205,,,A*7B
$GPRMC,150000.000,A,4439.6477,N,00112.3931,W,4.99,223.14,201205,,,A*7C
$GPRMC,150001.000,A,4439.6467,N,00112.3945,W,5.07,224.17,201205,,,A*7D
$GPRMC,150003.000,A,4439.6447,N,00112.3973,W,5.07,222.52,201205,,,A*7F
$GPRMC,150004.000,A,4439.6437,N,00112.3986,W,4.95,223.47,201205,,,A*7A
$GPRMC,150005.000,A,4439.6427,N,00112.4000,W,4.87,222.72,201205,,,A*7E
$GPRMC,150006.000,A,4439.6417,N,00112.4013,W,5.04,223.45,201205,,,A*73
$GPRMC,150008.000,A,4439.6397,N,00112.4040,W,4.91,222.49,201205,,,A*74
$GPRMC,150009.000,A,4439.6387,N,00112.4053,W,4.91,221.38,201205,,,A*73
$GPRMC,150010.000,A,4439.6377,N,00112.4066,W,4.99,222.25,201205,,,A*75
$GPRMC,150011.000,A,4439.6366,N,00112.4080,W,5.01,222.08,201205,,,A*73
$GPRMC,150013.000,A,4439.6346,N,00112.4106,W,4.96,219.93,201205,,,A*79
$GPRMC,150014.000,A,4439.6335,N,00112.4119,W,4.91,220.46,201205,,,A*71
$GPRMC,150015.000,A,4439.6325,N,00112.4132,W,4.94,222.62,201205,,,A*79
$GPRMC,150016.000,A,4439.6315,N,00112.4145,W,5.07,222.26,201205,,,A*72
$GPRMC,150018.000,A,4439.6294,N,00112.4172,W,4.91,221.45,201205,,,A*78
$GPRMC,150019.000,A,4439.6284,N,00112.4185,W,4.96,221.51,201205,,,A*72
$GPRMC,150020.000,A,4439.6274,N,00112.4198,W,5.03,222.41,201205,,,A*74
$GPRMC,150021.000,A,4439.6264,N,00112.4211,W,5.02,222.97,201205,,,A*7C
$GPRMC,150023.000,A,4439.6244,N,00112.4238,W,4.91,222.99,201205,,,A*72
$GPRMC,150024.000,A,4439.6234,N,00112.4251,W,4.87,222.48,201205,,,A*76
$GPRMC,150025.000,A,4439.6224,N,00112.4264,W,4.83,220.61,201205,,,A*7D
$GPRMC,150026.000,A,4439.6214,N,00112.4275,W,4.81,216.20,201205,,,A*7F
$GPRMC,150028.000,A,4439.6194,N,00112.4300,W,4.75,227.87,201205,,,A*7D
$GPRMC,150029.000,A,4439.6186,N,00112.4314,W,4.76,227.38,201205,,,A*7D
$GPRMC,150030.000,A,4439.6177,N,00112.4328,W,4.76,227.78,201205,,,A*70
$GPRMC,150031.000,A,4439.6168,N,00112.4342,W,4.73,231.08,201205,,,A*76
$GPRMC,150033.000,A,4439.6151,N,00112.4370,W,4.74,227.69,201205,,,A*78
$GPRMC,150034.000,A,4439.6142,N,00112.4384,W,4.78,228.00,201205,,,A*7A
$GPRMC,150035.000,A,4439.6133,N,00112.4399,W,4.84,227.16,201205,,,A*7A
$GPRMC,150036.000,A,4439.6124,N,00112.4412,W,4.75,225.94,201205,,,A*7D
$GPRMC,150038.000,A,4439.6106,N,00112.4440,W,4.77,226.36,201205,,,A*7D
$GPRMC,150039.000,A,4439.6097,N,00112.4453,W,4.80,225.67,201205,,,A*78
$GPRMC,150040.000,A,4439.6088,N,00112.4467,W,4.75,226.76,201205,,,A*76
$GPRMC,150041.000,A,4439.6079,N,00112.4481,W,4.72,226.43,201205,,,A*70
$GPRMC,150043.000,A,4439.6061,N,00112.4508,W,4.83,226.25,201205,,,A*75
$GPRMC,150044.000,A,4439.6052,N,00112.4521,W,4.76,225.32,201205,,,A*76
$GPRMC,150045.000,A,4439.6043,N,00112.4535,W,4.73,223.63,201205,,,A*75
$GPRMC,150046.000,A,4439.6034,N,00112.4548,W,4.87,225.70,201205,,,A*73
$GPRMC,150048.000,A,4439.6015,N,00112.4576,W,4.86,224.23,201205,,,A*75
$GPRMC,150049.000,A,4439.6005,N,00112.4589,W,4.91,223.96,201205,,,A*7A
$GPRMC,150050.000,A,4439.5996,N,00112.4603,W,4.92,223.64,201205,,,A*7D
$GPRMC,150051.000,A,4439.5986,N,00112.4616,W,4.89,225.27,201205,,,A*72
$GPRMC,150053.000,A,4439.5966,N,00112.4644,W,5.10,222.69,201205,,,A*75
$GPRMC,150054.000,A,4439.5956,N,00112.4658,W,4.99,222.72,201205,,,A*76
$GPRMC,150055.000,A,4439.5946,N,00112.4671,W,5.26,223.28,201205,,,A*76
$GPRMC,150056.000,A,4439.5936,N,00112.4686,W,5.20,225.69,201205,,,A*7F
$GPRMC,150058.000,A,4439.5916,N,00112.4716,W,5.29,224.37,201205,,,A*78
$GPRMC,150059.000,A,4439.5906,N,00112.4730,W,5.07,226.16,201205,,,A*71
$GPRMC,150100.000,A,4439.5896,N,00112.4745,W,5.20,225.99,201205,,,A*77
$GPRMC,150101.000,A,4439.5886,N,00112.4760,W,5.31,226.73,201205,,,A*77
$GPRMC,150103.000,A,4439.5866,N,00112.4791,W,5.25,226.39,201205,,,A*7E
$GPRMC,150104.000,A,4439.5856,N,00112.4806,W,5.13,226.27,201205,,,A*71
$GPRMC,150105.000,A,4439.5846,N,00112.4821,W,5.11,227.22,201205,,,A*72
$GPRMC,150106.000,A,4439.5837,N,00112.4836,W,5.37,227.94,201205,,,A*78
$GPRMC,150108.000,A,4439.5817,N,00112.4867,W,5.23,224.60,201205,,,A*7D
$GPRMC,150109.000,A,4439.5806,N,00112.4881,W,5.12,224.49,201205,,,A*7D
$GPRMC,150110.000,A,4439.5797,N,00112.4896,W,5.01,232.41,201205,,,A*79
$GPRMC,150111.000,A,4439.5790,N,00112.4912,W,4.70,239.18,201205,,,A*72
$GPRMC,150113.000,A,4439.5780,N,00112.4944,W,4.39,248.25,201205,,,A*77
$GPRMC,150114.000,A,4439.5776,N,00112.4960,W,4.29,252.10,201205,,,A*73
$GPRMC,150115.000,A,4439.5772,N,00112.4976,W,4.24,250.86,201205,,,A*71
$GPRMC,150116.000,A,4439.5768,N,00112.4992,W,4.34,249.39,201205,,,A*7E
$GPRMC,150118.000,A,4439.5761,N,00112.5024,W,4.14,249.50,201205,,,A*71
$GPRMC,150119.000,A,4439.5757,N,00112.5040,W,4.21,247.81,201205,,,A*73
$GPRMC,150120.000,A,4439.5753,N,00112.5055,W,4.29,246.52,201205,,,A*7E
$GPRMC,150121.000,A,4439.5748,N,00112.5070,W,4.30,242.93,201205,,,A*73
$GPRMC,150123.000,A,4439.5740,N,00112.5100,W,4.06,249.51,201205,,,A*7F
$GPRMC,150124.000,A,4439.5736,N,00112.5115,W,4.06,247.69,201205,,,A*78
$GPRMC,150125.000,A,4439.5732,N,00112.5130,W,4.11,248.33,201205,,,A*7C
$GPRMC,150126.000,A,4439.5728,N,00112.5145,W,3.95,249.92,201205,,,A*77
$GPRMC,150128.000,A,4439.5720,N,00112.5174,W,4.16,246.91,201205,,,A*73
$GPRMC,150129.000,A,4439.5716,N,00112.5189,W,4.17,246.92,201205,,,A*77
$GPRMC,150130.000,A,4439.5711,N,00112.5205,W,4.26,243.46,201205,,,A*71
$GPRMC,150131.000,A,4439.5706,N,00112.5220,W,4.35,243.69,201205,,,A*7E
$GPRMC,150133.000,A,4439.5695,N,00112.5251,W,4.64,238.81,201205,,,A*7F
$GPRMC,150134.000,A,4439.5689,N,00112.5267,W,4.73,241.16,201205,,,A*76
$GPRMC,150135.000,A,4439.5683,N,00112.5283,W,4.75,239.43,201205,,,A*7E
$GPRMC,150136.000,A,4439.5676,N,00112.5300,W,4.76,240.46,201205,,,A*75
$GPRMC,150138.000,A,4439.5663,N,00112.5333,W,5.11,237.38,201205,,,A*76
$GPRMC,150139.000,A,4439.5655,N,00112.5350,W,5.18,236.49,201205,,,A*79
$GPRMC,150140.000,A,4439.5647,N,00112.5367,W,5.27,233.75,201205,,,A*76
$GPRMC,150141.000,A,4439.5639,N,00112.5384,W,5.29,235.32,201205,,,A*78
$GPRMC,150143.000,A,4439.5623,N,00112.5419,W,5.33,239.79,201205,,,A*7A
$GPRMC,150144.000,A,4439.5616,N,00112.5437,W,5.33,241.96,201205,,,A*79
$GPRMC,150145.000,A,4439.5610,N,00112.5456,W,5.29,242.33,201205,,,A*7E
$GPRMC,150146.000,A,4439.5604,N,00112.5475,W,5.19,246.43,201205,,,A*79
$GPRMC,150148.000,A,4439.5593,N,00112.5512,W,5.22,247.45,201205,,,A*75
$GPRMC,150149.000,A,4439.5587,N,00112.5531,W,5.24,244.16,201205,,,A*73
$GPRMC,150150.000,A,4439.5581,N,00112.5550,W,5.16,245.71,201205,,,A*7B
$GPRMC,150151.000,A,4439.5575,N,00112.5568,W,5.19,245.17,201205,,,A*75
$GPRMC,150153.000,A,4439.5564,N,00112.5604,W,4.96,246.02,201205,,,A*7F
$GPRMC,150154.000,A,4439.5559,N,00112.5622,W,5.08,246.63,201205,,,A*73
$GPRMC,150155.000,A,4439.5554,N,00112.5640,W,5.12,245.03,201205,,,A*75
$GPRMC,150156.000,A,4439.5548,N,00112.5658,W,4.94,247.10,201205,,,A*7D
$GPRMC,150158.000,A,4439.5538,N,00112.5694,W,4.99,243.58,201205,,,A*71
$GPRMC,150159.000,A,4439.5532,N,00112.5712,W,4.95,244.65,201205,,,A*70
$GPRMC,150200.000,A,4439.5526,N,00112.5729,W,5.06,244.95,201205,,,A*76
$GPRMC,150201.000,A,4439.5520,N,00112.5747,W,5.04,243.30,201205,,,A*73
$GPRMC,150203.000,A,4439.5508,N,00112.5783,W,4.98,246.19,201205,,,A*79
$GPRMC,150204.000,A,4439.5503,N,00112.5801,W,5.10,245.75,201205,,,A*78
$GPRMC,150205.000,A,4439.5497,N,00112.5820,W,5.11,244.82,201205,,,A*7E
$GPRMC,150206.000,A,4439.5491,N,00112.5838,W,5.04,246.81,201205,,,A*77
$GPRMC,150208.000,A,4439.5480,N,00112.5875,W,5.07,248.07,201205,,,A*73
$GPRMC,150209.000,A,4439.5475,N,00112.5893,W,5.23,245.24,201205,,,A*7A
$GPRMC,150210.000,A,4439.5469,N,00112.5912,W,5.11,246.57,201205,,,A*71
$GPRMC,150211.000,A,4439.5464,N,00112.5931,W,5.13,250.21,201205,,,A*78
$GPRMC,150213.000,A,4439.5454,N,00112.5969,W,5.04,249.69,201205,,,A*76
$GPRMC,150214.000,A,4439.5449,N,00112.5987,W,4.99,247.27,201205,,,A*7C
$GPRMC,150215.000,A,4439.5444,N,00112.6006,W,5.11,248.87,201205,,,A*77
$GPRMC,150216.000,A,4439.5439,N,00112.6025,W,5.12,247.62,201205,,,A*78
$GPRMC,150218.000,A,4439.5428,N,00112.6062,W,5.01,246.96,201205,,,A*7D
$GPRMC,150219.000,A,4439.5423,N,00112.6080,W,4.99,248.64,201205,,,A*78
$GPRMC,150220.000,A,4439.5418,N,00112.6099,W,5.06,247.21,201205,,,A*7B
$GPRMC,150221.000,A,4439.5412,N,00112.6117,W,5.10,248.07,201205,,,A*7B
$GPRMC,150223.000,A,4439.5403,N,00112.6154,W,4.96,248.33,201205,,,A*76
$GPRMC,150224.000,A,4439.5398,N,00112.6173,W,4.99,251.90,201205,,,A*7F
$GPRMC,150225.000,A,4439.5393,N,00112.6191,W,4.82,248.14,201205,,,A*77
$GPRMC,150226.000,A,4439.5388,N,00112.6209,W,4.86,245.59,201205,,,A*7C
$GPRMC,150228.000,A,4439.5378,N,00112.6244,W,4.87,249.21,201205,,,A*76
$GPRMC,150229.000,A,4439.5373,N,00112.6262,W,4.89,248.03,201205,,,A*77
$GPRMC,150230.000,A,4439.5368,N,00112.6280,W,4.82,246.54,201205,,,A*7E
$GPRMC,150231.000,A,4439.5363,N,00112.6298,W,4.94,246.95,201205,,,A*77
$GPRMC,150233.000,A,4439.5352,N,00112.6334,W,5.08,242.04,201205,,,A*78
$GPRMC,150234.000,A,4439.5345,N,00112.6352,W,5.04,240.35,201205,,,A*75
$GPRMC,150235.000,A,4439.5338,N,00112.6369,W,5.09,242.11,201205,,,A*7F
$GPRMC,150236.000,A,4439.5332,N,00112.6387,W,5.18,241.88,201205,,,A*75
$GPRMC,150238.000,A,4439.5319,N,00112.6425,W,5.18,245.44,201205,,,A*79
$GPRMC,150239.000,A,4439.5314,N,00112.6443,W,5.06,247.96,201205,,,A*77
$GPRMC,150240.000,A,4439.5309,N,00112.6462,W,5.23,249.16,201205,,,A*77
$GPRMC,150241.000,A,4439.5303,N,00112.6482,W,5.17,247.57,201205,,,A*7E
$GPRMC,150243.000,A,4439.5293,N,00112.6520,W,5.30,249.05,201205,,,A*71
$GPRMC,150244.000,A,4439.5288,N,00112.6540,W,5.16,251.14,201205,,,A*77
$GPRMC,150245.000,A,4439.5283,N,00112.6559,W,5.19,247.45,201205,,,A*79
$GPRMC,150246.000,A,4439.5278,N,00112.6578,W,5.19,248.68,201205,,,A*7D
$GPRMC,150248.000,A,4439.5268,N,00112.6618,W,5.34,250.69,201205,,,A*70
$GPRMC,150249.000,A,4439.5263,N,00112.6637,W,5.07,251.01,201205,,,A*78
$GPRMC,150250.000,A,4439.5259,N,00112.6656,W,5.12,250.72,201205,,,A*7F
$GPRMC,150251.000,A,4439.5254,N,00112.6675,W,5.03,252.97,201205,,,A*7B
$GPRMC,150253.000,A,4439.5246,N,00112.6714,W,5.22,250.44,201205,,,A*73
$GPRMC,150254.000,A,4439.5241,N,00112.6734,W,5.18,250.88,201205,,,A*78
$GPRMC,150255.000,A,4439.5237,N,00112.6753,W,5.06,252.12,201205,,,A*77
$GPRMC,150256.000,A,4439.5233,N,00112.6772,W,5.10,252.84,201205,,,A*7B
$GPRMC,150258.000,A,4439.5224,N,00112.6810,W,5.13,249.70,201205,,,A*7A
$GPRMC,150259.000,A,4439.5219,N,00112.6829,W,5.16,250.29,201205,,,A*7E
$GPRMC,150300.000,A,4439.5215,N,00112.6848,W,5.04,251.76,201205,,,A*70
$GPRMC,150301.000,A,4439.5210,N,00112.6867,W,5.01,248.74,201205,,,A*76
$GPRMC,150303.000,A,4439.5200,N,00112.6904,W,5.01,249.53,201205,,,A*75
$GPRMC,150304.000,A,4439.5196,N,00112.6922,W,5.23,248.58,201205,,,A*70
$GPRMC,150305.000,A,4439.5191,N,00112.6941,W,4.94,251.91,201205,,,A*73
$GPRMC,150306.000,A,4439.5187,N,00112.6959,W,4.83,250.19,201205,,,A*79
$GPRMC,150308.000,A,4439.5178,N,00112.6996,W,5.00,249.73,201205,,,A*7A
$GPRMC,150309.000,A,4439.5173,N,00112.7014,W,4.90,247.75,201205,,,A*72
$GPRMC,150310.000,A,4439.5168,N,00112.7032,W,4.90,248.35,201205,,,A*7F
$GPRMC,150311.000,A,4439.5164,N,00112.7050,W,4.98,251.01,201205,,,A*71
$GPRMC,150313.000,A,4439.5155,N,00112.7086,W,4.88,247.16,201205,,,A*7A
$GPRMC,150314.000,A,4439.5150,N,00112.7103,W,4.81,249.87,201205,,,A*7B
$GPRMC,150315.000,A,4439.5146,N,00112.7122,W,4.83,253.78,201205,,,A*77
$GPRMC,150316.000,A,4439.5142,N,00112.7139,W,4.66,251.71,201205,,,A*7A
$GPRMC,150318.000,A,4439.5135,N,00112.7174,W,4.59,253.05,201205,,,A*70
$GPRMC,150319.000,A,4439.5131,N,00112.7191,W,4.69,248.51,201205,,,A*76
$GPRMC,150320.000,A,4439.5126,N,00112.7208,W,4.87,247.59,201205,,,A*7E
$GPRMC,150321.000,A,4439.5122,N,00112.7226,W,4.60,252.57,201205,,,A*74
$GPRMC,150323.000,A,4439.5114,N,00112.7260,W,4.56,250.51,201205,,,A*70
$GPRMC,150324.000,A,4439.5110,N,00112.7278,W,4.75,252.67,201205,,,A*7C
$GPRMC,150325.000,A,4439.5106,N,00112.7295,W,4.84,249.53,201205,,,A*7A
$GPRMC,150326.000,A,4439.5102,N,00112.7313,W,4.69,249.52,201205,,,A*70
$GPRMC,150328.000,A,4439.5095,N,00112.7347,W,4.62,253.28,201205,,,A*7D
$GPRMC,150329.000,A,4439.5091,N,00112.7365,W,4.92,250.73,201205,,,A*7A
$GPRMC,150330.000,A,4439.5087,N,00112.7383,W,4.64,253.43,201205,,,A*74
$GPRMC,150331.000,A,4439.5084,N,00112.7400,W,4.60,255.76,201205,,,A*7E
$GPRMC,150333.000,A,4439.5078,N,00112.7434,W,4.57,252.29,201205,,,A*71
$GPRMC,150334.000,A,4439.5074,N,00112.7451,W,4.53,251.37,201205,,,A*71
$GPRMC,150335.000,A,4439.5070,N,00112.7468,W,4.57,253.17,201205,,,A*7A
$GPRMC,150336.000,A,4439.5067,N,00112.7485,W,4.45,253.52,201205,,,A*7E
$GPRMC,150338.000,A,4439.5059,N,00112.7518,W,4.37,249.75,201205,,,A*73
$GPRMC,150339.000,A,4439.5055,N,00112.7534,W,4.53,251.23,201205,,,A*78
$GPRMC,150340.000,A,4439.5052,N,00112.7551,W,4.53,252.08,201205,,,A*78
$GPRMC,150341.000,A,4439.5048,N,00112.7568,W,4.46,253.66,201205,,,A*75
$GPRMC,150343.000,A,4439.5040,N,00112.7601,W,4.48,249.41,201205,,,A*73
$GPRMC,150344.000,A,4439.5037,N,00112.7618,W,4.51,256.47,201205,,,A*7C
$GPRMC,150345.000,A,4439.5034,N,00112.7635,W,4.46,254.74,201205,,,A*75
$GPRMC,150346.000,A,4439.5031,N,00112.7651,W,4.26,256.40,201205,,,A*72
$GPRMC,150348.000,A,4439.5027,N,00112.7684,W,4.19,257.55,201205,,,A*7A
$GPRMC,150349.000,A,4439.5025,N,00112.7700,W,4.00,259.79,201205,,,A*7C
$GPRMC,150350.000,A,4439.5023,N,00112.7716,W,3.96,260.35,201205,,,A*7F
$GPRMC,150351.000,A,4439.5021,N,00112.7731,W,4.04,258.81,201205,,,A*71
$GPRMC,150353.000,A,4439.5016,N,00112.7762,W,4.07,255.12,201205,,,A*75
$GPRMC,150354.000,A,4439.5013,N,00112.7778,W,4.15,255.96,201205,,,A*73
$GPRMC,150355.000,A,4439.5010,N,00112.7794,W,4.30,253.21,201205,,,A*7E
$GPRMC,150356.000,A,4439.5007,N,00112.7810,W,4.20,249.43,201205,,,A*76
$GPRMC,150358.000,A,4439.5000,N,00112.7842,W,4.30,253.99,201205,,,A*75
$GPRMC,150359.000,A,4439.4997,N,00112.7858,W,4.25,253.50,201205,,,A*78
$GPRMC,150400.000,A,4439.4994,N,00112.7874,W,4.28,253.74,201205,,,A*75
$GPRMC,150401.000,A,4439.4990,N,00112.7890,W,4.24,254.87,201205,,,A*7D
$GPRMC,150403.000,A,4439.4985,N,00112.7922,W,4.06,257.46,201205,,,A*7D
$GPRMC,150404.000,A,4439.4983,N,00112.7937,W,3.97,255.48,201205,,,A*7B
$GPRMC,150405.000,A,4439.4980,N,00112.7952,W,3.86,255.65,201205,,,A*75
$GPRMC,150406.000,A,4439.4978,N,00112.7967,W,3.78,259.39,201205,,,A*73
$GPRMC,150408.000,A,4439.4974,N,00112.7996,W,3.70,257.58,201205,,,A*7E
$GPRMC,150409.000,A,4439.4973,N,00112.8010,W,3.45,258.22,201205,,,A*74
$GPRMC,150410.000,A,4439.4971,N,00112.8023,W,3.43,264.20,201205,,,A*75
$GPRMC,150411.000,A,4439.4970,N,00112.8037,W,3.40,262.52,201205,,,A*70
$GPRMC,150413.000,A,4439.4970,N,00112.8062,W,3.25,268.01,201205,,,A*7D
$GPRMC,150414.000,A,4439.4969,N,00112.8075,W,3.44,262.78,201205,,,A*77
$GPRMC,150415.000,A,4439.4967,N,00112.8089,W,3.63,256.11,201205,,,A*76
$GPRMC,150416.000,A,4439.4964,N,00112.8103,W,3.70,248.54,201205,,,A*79
$GPRMC,150418.000,A,4439.4956,N,00112.8130,W,4.10,243.84,201205,,,A*71
$GPRMC,150419.000,A,4439.4950,N,00112.8145,W,4.25,238.00,201205,,,A*72
$GPRMC,150420.000,A,4439.4944,N,00112.8159,W,4.42,239.14,201205,,,A*75
$GPRMC,150421.000,A,4439.4937,N,00112.8175,W,4.58,237.87,201205,,,A*71
$GPRMC,150423.000,A,4439.4923,N,00112.8205,W,4.66,237.21,201205,,,A*73
$GPRMC,150424.000,A,4439.4917,N,00112.8221,W,4.71,240.30,201205,,,A*73
$GPRMC,150425.000,A,4439.4910,N,00112.8237,W,4.66,239.28,201205,,,A*73
$GPRMC,150426.000,A,4439.4904,N,00112.8252,W,4.64,242.05,201205,,,A*77
$GPRMC,150428.000,A,4439.4893,N,00112.8287,W,4.78,246.64,201205,,,A*70
$GPRMC,150429.000,A,4439.4888,N,00112.8304,W,4.87,241.89,201205,,,A*75
$GPRMC,150430.000,A,4439.4882,N,00112.8320,W,4.79,241.15,201205,,,A*75
$GPRMC,150431.000,A,4439.4875,N,00112.8337,W,4.84,242.66,201205,,,A*7F
$GPRMC,150433.000,A,4439.4864,N,00112.8371,W,4.80,246.54,201205,,,A*7E
$GPRMC,150434.000,A,4439.4860,N,00112.8389,W,4.83,249.37,201205,,,A*73
$GPRMC,150435.000,A,4439.4855,N,00112.8407,W,4.81,248.04,201205,,,A*76
$GPRMC,150436.000,A,4439.4850,N,00112.8424,W,4.76,248.65,201205,,,A*7E
$GPRMC,150438.000,A,4439.4840,N,00112.8458,W,4.71,247.93,201205,,,A*7B
$GPRMC,150439.000,A,4439.4835,N,00112.8476,W,4.77,251.43,201205,,,A*78
$GPRMC,150440.000,A,4439.4831,N,00112.8493,W,4.66,250.15,201205,,,A*7B
$GPRMC,150441.000,A,4439.4826,N,00112.8511,W,4.71,247.78,201205,,,A*7C
$GPRMC,150443.000,A,4439.4818,N,00112.8546,W,4.75,250.32,201205,,,A*7D
$GPRMC,150444.000,A,4439.4813,N,00112.8564,W,4.76,247.85,201205,,,A*78
$GPRMC,150445.000,A,4439.4808,N,00112.8581,W,4.77,244.76,201205,,,A*76
$GPRMC,150446.000,A,4439.4802,N,00112.8598,W,4.78,244.66,201205,,,A*79
$GPRMC,150448.000,A,4439.4791,N,00112.8633,W,4.95,243.01,201205,,,A*75
$GPRMC,150449.000,A,4439.4785,N,00112.8651,W,4.88,245.15,201205,,,A*7A
$GPRMC,150450.000,A,4439.4779,N,00112.8668,W,4.90,245.25,201205,,,A*71
$GPRMC,150451.000,A,4439.4773,N,00112.8686,W,4.91,242.22,201205,,,A*7B
$GPRMC,150453.000,A,4439.4761,N,00112.8720,W,5.08,241.63,201205,,,A*70
$GPRMC,150454.000,A,4439.4754,N,00112.8738,W,5.08,239.47,201205,,,A*71
$GPRMC,150455.000,A,4439.4747,N,00112.8755,W,5.01,239.06,201205,,,A*75
$GPRMC,150456.000,A,4439.4740,N,00112.8772,W,5.02,241.32,201205,,,A*7F
$GPRMC,150458.000,A,4439.4727,N,00112.8807,W,5.06,240.80,201205,,,A*71
$GPRMC,150459.000,A,4439.4721,N,00112.8824,W,5.05,241.60,201205,,,A*7B
$GPRMC,150500.000,A,4439.4714,N,00112.8842,W,5.11,239.76,201205,,,A*7D
$GPRMC,150501.000,A,4439.4706,N,00112.8859,W,5.20,238.06,201205,,,A*71
$GPRMC,150503.000,A,4439.4692,N,00112.8894,W,5.13,240.07,201205,,,A*70
$GPRMC,150504.000,A,4439.4685,N,00112.8912,W,5.25,240.24,201205,,,A*7A
$GPRMC,150505.000,A,4439.4679,N,00112.8930,W,5.04,245.04,201205,,,A*7C
$GPRMC,150506.000,A,4439.4673,N,00112.8948,W,5.08,244.44,201205,,,A*73
$GPRMC,150508.000,A,4439.4660,N,00112.8984,W,5.33,240.02,201205,,,A*71
$GPRMC,150509.000,A,4439.4653,N,00112.9002,W,5.21,244.11,201205,,,A*73
$GPRMC,150510.000,A,4439.4647,N,00112.9021,W,5.16,246.24,201205,,,A*7F
$GPRMC,150511.000,A,4439.4641,N,00112.9039,W,5.23,245.39,201205,,,A*78
$GPRMC,150513.000,A,4439.4628,N,00112.9077,W,5.36,242.37,201205,,,A*72
$GPRMC,150514.000,A,4439.4622,N,00112.9095,W,5.26,246.07,201205,,,A*75
$GPRMC,150515.000,A,4439.4617,N,00112.9114,W,5.32,246.94,201205,,,A*75
$GPRMC,150516.000,A,4439.4611,N,00112.9134,W,5.46,248.27,201205,,,A*77
$GPRMC,150518.000,A,4439.4599,N,00112.9173,W,5.27,246.56,201205,,,A*76
$GPRMC,150519.000,A,4439.4593,N,00112.9193,W,5.40,247.10,201205,,,A*71
$GPRMC,150520.000,A,4439.4588,N,00112.9212,W,5.46,247.41,201205,,,A*79
$GPRMC,150521.000,A,4439.4582,N,00112.9232,W,5.34,249.00,201205,,,A*7E
$GPRMC,150523.000,A,4439.4573,N,00112.9272,W,5.32,251.71,201205,,,A*7F
$GPRMC,150524.000,A,4439.4568,N,00112.9292,W,5.27,252.15,201205,,,A*79
$GPRMC,150525.000,A,4439.4564,N,00112.9312,W,5.27,251.36,201205,,,A*7F
$GPRMC,150526.000,A,4439.4559,N,00112.9331,W,5.34,252.63,201205,,,A*72
$GPRMC,150528.000,A,4439.4551,N,00112.9371,W,5.20,255.69,201205,,,A*78
$GPRMC,150529.000,A,4439.4548,N,00112.9391,W,5.13,253.90,201205,,,A*7F
$GPRMC,150530.000,A,4439.4544,N,00112.9410,W,5.10,255.69,201205,,,A*76
$GPRMC,150531.000,A,4439.4541,N,00112.9429,W,5.07,255.12,201205,,,A*72
