6,W,5.04,216.92,201205,,,A*71
$WIMWV,65.0,R,10.0,N,A*21
$SDDBT,26.5,f,8.0,M,4.4,F*3F
$VWVHW,,,,,2.51,N,4.64,K*4D
$WIMTW,25.0,C*0A
$GPGLL,4440.3443,N,00111.5018,W,144756.000,A,A*47
$WIMWV,78.0,R,11.3,N,A*2F
$SDDBT,26.4,f,8.0,M,4.4,F*3E
$GPRMC,144756.000,A,4440.3443,N,00111.5018,W,5.01,216.12,201205,,,A*76
$VWVHW,,,,,2.86,N,5.29,K*4F
$WIMTW,25.0,C*0A
$GPGLL,4440.3432,N,00111.5030,W,144757.000,A,A*4A
!AIVDM,1,1,,A,C3Vk?h000gvSoRVIh50:3TN0P:`Ba0HNB71UKUW:000000D2RRR0,0*4B
$WIMWV,70.5,R,11.5,N,A*24
!AIVDM,1,1,,A,C3Vk?h000gvSoRVIh50:3TN0P:`Ba0HNB71UKUW:000000D2RRR0,0*4B
$SDDBT,26.5,f,8.0,M,4.4,F*3F
$VWVHW,,,,,2.62,N,4.85,K*42
$WIMTW,25.0,C*0A
!AIVDM,1,1,,A,C3Vk?h000gvSoRVIh50:3TN0P:`Ba0HNB71UKUW:000000D2RRR0,0*4B
$GPRMC,144758.000,A,4440.3422,N,00111.5042,W,4.94,218.87,201205,,,A*7F
$WIMWV,71.0,R,11.5,N,A*20
$SDDBT,27.1,f,8.2,M,4.5,F*39
$VWVHW,,,,,2.86,N,5.29,K*4F
$WIMTW,25.0,C*0A
$GPGLL,4440.3411,N,00111.5054,W,144759.000,A,A*47
$GPRMC,144759.000,A,4440.3411,N,00111.5054,W,4.98,221.38,201205,,,A*7B
$WIMWV,78.5,R,11.6,N,A*2F
$SDDBT,28.2,f,8.5,M,4.7,F*30
$VWVHW,,,,,2.80,N,5.18,K*4B
$WIMTW,25.0,C*0A
$GPGLL,4440.3401,N,00111.5067,W,144800.000,A,A*45
$GPRMC,144800.000,A,4440.3401,N,00111.5067,W,5.02,220.32,201205,,,A*70
$WIMWV,71.0,R,11.7,N,A*22
$SDDBT,27.6,f,8.4,M,4.6,F*3B
$VWVHW,,,,,2.73,N,5.05,K*4B
$WIMTW,25.0,C*0A
$GPGLL,4440.3391,N,00111.5080,W,144801.000,A,A*43
$WIMWV,74.5,R,11.7,N,A*22
!AIVDM,1,1,,A,B3Hl40P0D?vUb46HV7l:wwPUoP06,0*6C
$SDDBT,27.6,f,8.4,M,4.6,F*3B
$GPRMC,144801.000,A,4440.3391,N,00111.5080,W,5.06,221.89,201205,,,A*73
$VWVHW,,,,,2.93,N,5.42,K*46
$WIMTW,25.0,C*0A
$GPGLL,4440.3380,N,00111.5093,W,144802.000,A,A*42
$WIMWV,76.5,R,11.5,N,A*22
!AIVDM,1,1,,A,13IN@G7001wr5shITlAdMPL40@1l,0*15
$SDDBT,27.9,f,8.5,M,4.6,F*35
$VWVHW,,,,,2.73,N,5.05,K*4B
$WIMTW,25.0,C*0A
$GPRMC,144803.000,A,4440.3370,N,00111.5106,W,5.06,221.62,201205,,,A*74
$WIMWV,74.0,R,11.3,N,A*23
$SDDBT,27.5,f,8.3,M,4.5,F*3C
$VWVHW,,,,,3.32,N,6.14,K*4C
$WIMTW,25.0,C*0A
$GPGLL,4440.3359,N,00111.5119,W,144804.000,A,A*43
$GPRMC,144804.000,A,4440.3359,N,00111.5119,W,5.05,218.18,201205,,,A*72
$WIMWV,74.5,R,11.0,N,A*25
$SDDBT,27.9,f,8.5,M,4.6,F*35
$VWVHW,,,,,2.62,N,4.85,K*42
$WIMTW,25.0,C*0A
$GPGLL,4440.3348,N,00111.5131,W,144805.000,A,A*48
$GPRMC,144805.000,A,4440.3348,N,00111.5131,W,5.01,217.52,201205,,,A*7C
$WIMWV,75.5,R,11.0,N,A*24
$SDDBT,27.9,f,8.5,M,4.6,F*35
$VWVHW,,,,,2.86,N,5.29,K*4F
$WIMTW,25.0,C*0A
$GPGLL,4440.3337,N,00111.5143,W,144806.000,A,A*46
$WIMWV,69.0,R,10.5,N,A*28
$SDDBT,28.2,f,8.5,M,4.7,F*30
$GPRMC,144806.000,A,4440.3337,N,00111.5143,W,5.05,217.63,201205,,,A*74
$VWVHW,,,,,2.62,N,4.85,K*42
$WIMTW,25.0,C*0A
$WIMWV,78.0,R,11.5,N,A*29
$GPGLL,4440.3326,N,00111.5155,W,144807.000,A,A*40
$SDDBT,28.4,f,8.6,M,4.7,F*35
$VWVHW,,,,,2.80,N,5.18,K*4B
$WIMTW,25.0,C*0A
$WIMWV,63.0,R,11.3,N,A*25
$GPRMC,144808.000,A,4440.3315,N,00111.5167,W,4.98,217.65,201205,,,A*7F
$SDDBT,28.0,f,8.5,M,4.6,F*33
!AIVDM,1,1,,A,13IinA7000wrhS2ISJeD;nv>05k0,0*12
$VWVHW,,,,,2.93,N,5.42,K*46
$WIMTW,25.0,C*0A
$GPGLL,4440.3305,N,00111.5180,W,144809.000,A,A*47
$WIMWV,78.0,R,11.2,N,A*2E
$GPRMC,144809.000,A,4440.3305,N,00111.5180,W,5.03,220.44,201205,,,A*72
$SDDBT,28.7,f,8.7,M,4.7,F*37
$VWVHW,,,,,3.24,N,6.00,K*4E
$WIMTW,25.0,C*0A
$GPGLL,4440.3294,N,00111.5192,W,144810.000,A,A*45
$WIMWV,58.5,R,12.4,N,A*2C
$GPRMC,144810.000,A,4440.3294,N,00111.5192,W,5.05,220.00,201205,,,A*76
$SDDBT,28.7,f,8.7,M,4.7,F*37
$VWVHW,,,,,2.86,N,5.29,K*4F
$WIMTW,25.0,C*0A
$WIMWV,78.0,R,10.5,N,A*28
$GPGLL,4440.3284,N,00111.5205,W,144811.000,A,A*48
$SDDBT,28.6,f,8.7,M,4.7,F*36
$GPRMC,144811.000,A,4440.3284,N,00111.5205,W,5.05,218.85,201205,,,A*7D
$VWVHW,,,,,2.80,N,5.18,K*4B
$WIMTW,25.0,C*0A
$WIMWV,79.5,R,10.9,N,A*20
$GPGLL,4440.3273,N,00111.5217,W,144812.000,A,A*40
!AIVDM,1,1,,A,B3HpcSP0Fov`@KVHri0c;wbUkP06,0*1B
$SDDBT,28.7,f,8.7,M,4.7,F*37
$VWVHW,,,,,2.51,N,4.64,K*4D
!AIVDM,1,1,,A,13Hq<wP000OrabRISbqr8pFJ0<0;,0*62
$WIMTW,25.0,C*0A
$WIMWV,74.5,R,11.4,N,A*21
$GPRMC,144813.000,A,4440.3263,N,00111.5230,W,4.87,222.05,201205,,,A*7A
$SDDBT,29.3,f,8.9,M,4.8,F*33
$VWVHW,,,,,2.62,N,4.85,K*42
$WIMTW,25.0,C*0A
$WIMWV,62.5,R,10.2,N,A*21
$GPGLL,4440.3253,N,00111.5243,W,144814.000,A,A*45
!AIVDM,1,1,,A,13INo2001cOrKW:ISPnjpR>N0h8b,0*29
$GPRMC,144814.000,A,4440.3253,N,00111.5243,W,4.88,222.38,201205,,,A*7B
!AIVDM,1,1,,A,13I@;<7PA9OrEELIPwTPu@LN088o,0*46
$SDDBT,28.7,f,8.7,M,4.7,F*37
$VWVHW,,,,,2.56,N,4.74,K*4B
$WIMTW,25.0,C*0A
$WIMWV,73.5,R,10.9,N,A*2A
$GPGLL,4440.3243,N,00111.5256,W,144815.000,A,A*41
$GPRMC,144815.000,A,4440.3243,N,00111.5256,W,4.84,221.83,201205,,,A*70
$SDDBT,28.6,f,8.7,M,4.7,F*36
$VWVHW,,,,,2.73,N,5.05,K*4B
$WIMTW,25.0,C*0A
$WIMWV,72.5,R,10.1,N,A*23
$GPGLL,4440.3234,N,00111.5269,W,144816.000,A,A*4E
$SDDBT,30.3,f,9.2,M,5.0,F*38
$GPRMC,144816.000,A,4440.3234,N,00111.5269,W,4.83,222.23,201205,,,A*71
$VWVHW,,,,,2.67,N,4.94,K*47
$WIMWV,78.0,R,9.5,N,A*10
$WIMTW,25.0,C*0A
!AIVDM,1,1,,A,B8dBL4h06wvGw:VHjC6cgwv43P06,0*32
!AIVDM,1,1,,A,H8dBL4h8uDDF0u8Ttr3:2222220,2*7F
$GPGLL,4440.3224,N,00111.5281,W,144817.000,A,A*48
!AIVDM,1,1,,A,H8dBL4l0BCP00012?ijklm;@0000,0*1B
!AIVDM,1,1,,A,D02:ngATtNfr<`O6D0,4*3D
$SDDBT,30.3,f,9.2,M,5.0,F*38
$WIMWV,73.5,R,10.0,N,A*23
!AIVDM,1,1,,A,B3IP;LP00WvVURVH<aCHcwa5oP06,0*28
$VWVHW,,,,,2.62,N,4.85,K*42
$WIMTW,25.0,C*0A
$GPRMC,144818.000,A,4440.3214,N,00111.5294,W,4.80,221.07,201205,,,A*79
$SDDBT,31.0,f,9.4,M,5.1,F*3D
$WIMWV,78.5,R,9.9,N,A*19
$VWVHW,,,,,2.80,N,5.18,K*4B
$WIMTW,25.0,C*0A
$GPGLL,4440.3204,N,00111.5306,W,144819.000,A,A*4A
$GPRMC,144819.000,A,4440.3204,N,00111.5306,W,4.86,220.53,201205,,,A*75
$WIMWV,74.0,R,10.5,N,A*24
$SDDBT,30.7,f,9.3,M,5.1,F*3C
$VWVHW,,,,,2.62,N,4.85,K*42
$WIMTW,25.0,C*0A
$GPGLL,4440.3194,N,00111.5319,W,144820.000,A,A*44
!AIVDM,1,1,,A,H3I1I10d4hU@U@uF22222222220,2*54
$GPRMC,144820.000,A,4440.3194,N,00111.5319,W,4.93,220.25,201205,,,A*7E
!AIVDM,1,1,,A,402:ngAvV2fhCOrB9LIRvGg00D0?,0*31
$WIMWV,72.0,R,10.1,N,A*26
$SDDBT,30.7,f,9.3,M,5.1,F*3C
$VWVHW,,,,,2.56,N,4.74,K*4B
$WIMTW,25.0,C*0A
!AIVDM,1,1,,A,H3I1I14t1=30000674lonm0H9220,0*66
!AIVDM,1,1,,A,B3I?dO00;WvUq06HsbBDSwbWkP06,0*41
$GPGLL,4440.3183,N,00111.5331,W,144821.000,A,A*49
$WIMWV,71.5,R,10.9,N,A*28
$SDDBT,30.1,f,9.1,M,5.0,F*39
$GPRMC,144821.000,A,4440.3183,N,00111.5331,W,4.86,220.97,201205,,,A*7E
$VWVHW,,,,,2.46,N,4.55,K*49
$WIMTW,25.0,C*0A
!AIVDM,1,1,,A,13IN@G7000wr5stITlAMchLd00S;,0*22
$GPGLL,4440.3173,N,00111.5344,W,144822.000,A,A*47
$WIMWV,68.5,R,10.3,N,A*2A
$SDDBT,30.1,f,9.1,M,5.0,F*39
$VWVHW,,,,,3.00,N,5.55,K*4B
$WIMTW,25.0,C*0A
$GPRMC,144823.000,A,4440.3163,N,00111.5356,W,4.80,221.26,201205,,,A*7E
$WIMWV,59.5,R,10.4,N,A*2F
$SDDBT,31.0,f,9.4,M,5.1,F*3D
$VWVHW,,,,,2.67,N,4.94,K*47
$WIMTW,25.0,C*0A
!AIVDM,2,1,7,A,53IN@G800000HL840010E@UB0htT<0000000000N18>34=9;26C2AEF811H4,0*71
!AIVDM,2,2,7,A,1@j1@000000,2*79
$GPGLL,4440.3154,N,00111.5369,W,144824.000,A,A*4B
$GPRMC,144824.000,A,4440.3154,N,00111.5369,W,4.76,222.84,201205,,,A*73
$WIMWV,66.5,R,10.6,N,A*21
$SDDBT,30.4,f,9.2,M,5.0,F*3F
$VWVHW,,,,,3.08,N,5.70,K*44
$WIMTW,25.0,C*0A
$GPGLL,4440.3144,N,00111.5381,W,144825.000,A,A*4D
$GPRMC,144825.000,A,4440.3144,N,00111.5381,W,4.79,220.63,201205,,,A*71
$WIMWV,70.0,R,10.2,N,A*27
$SDDBT,30.4,f,9.2,M,5.0,F*3F
$VWVHW,,,,,2.51,N,4.64,K*4D
$WIMTW,25.0,C*0A
$GPGLL,4440.3134,N,00111.5393,W,144826.000,A,A*4A
$WIMWV,73.5,R,11.4,N,A*26
$SDDBT,31.6,f,9.6,M,5.2,F*3A
$GPRMC,144826.000,A,4440.3134,N,00111.5393,W,4.73,219.65,201205,,,A*70
$VWVHW,,,,,2.80,N,5.18,K*4B
$WIMTW,25.0,C*0A
!AIVDM,1,1,,A,B3I@Rj009WvUifVHb1@DSwe7kP06,0*26
$GPGLL,4440.3124,N,00111.5405,W,144827.000,A,A*42
$WIMWV,72.5,R,10.7,N,A*25
$SDDBT,31.7,f,9.6,M,5.2,F*3B
$VWVHW,,,,,2.62,N,4.85,K*42
$WIMTW,25.0,C*0A
$GPRMC,144828.000,A,4440.3114,N,00111.5417,W,4.73,219.70,201205,,,A*73
$WIMWV,72.0,R,10.9,N,A*2E
$SDDBT,31.6,f,9.6,M,5.2,F*3A
$VWVHW,,,,,3.00,N,5.55,K*4B
$WIMTW,25.0,C*0A
!AIVDM,1,1,,A,13IinA7000wrhRtISJe4;nvn00Sp,0*08
$GPGLL,4440.3104,N,00111.5429,W,144829.000,A,A*40
$GPRMC,144829.000,A,4440.3104,N,00111.5429,W,4.75,218.34,201205,,,A*79
$WIMWV,71.5,R,11.5,N,A*25
$SDDBT,32.2,f,9.8,M,5.3,F*32
$VWVHW,,,,,2.67,N,4.94,K*47
$WIMTW,25.0,C*0A
$GPGLL,4440.3094,N,00111.5440,W,144830.000,A,A*4F
$GPRMC,144830.000,A,4440.3094,N,00111.5440,W,4.78,217.12,201205,,,A*70
$WIMWV,69.0,R,10.5,N,A*28
!AIVDM,1,1,,A,B3I4W4P07GvUmDVHaJHF3wgUkP06,0*23
$SDDBT,30.9,f,9.4,M,5.1,F*35
$VWVHW,,,,,2.67,N,4.94,K*47
$WIMTW,25.0,C*0A
$GPGLL,4440.3083,N,00111.5452,W,144831.000,A,A*4B
$WIMWV,70.5,R,10.9,N,A*29
$SDDBT,30.8,f,9.3,M,5.1,F*33
$GPRMC,144831.000,A,4440.3083,N,00111.5452,W,4.80,215.90,201205,,,A*7B
$VWVHW,,,,,2.67,N,4.94,K*47
$WIMTW,25.0,C*0A
$WIMWV,62.5,R,11.0,N,A*22
$GPGLL,4440.3072,N,00111.5462,W,144832.000,A,A*45
$SDDBT,29.5,f,8.9,M,4.9,F*34
$VWVHW,,,,,2.36,N,4.37,K*4A
$WIMTW,25.0,C*0A
$WIMWV,74.0,R,11.1,N,A*21
$GPRMC,144833.000,A,4440.3062,N,00111.5473,W,4.79,217.26,201205,,,A*7C
!AIVDM,1,1,,A,13Hq<wP000OrabRISbr13`G40D0;,0*3E
$SDDBT,29.4,f,8.9,M,4.9,F*35
$VWVHW,,,,,2.62,N,4.85,K*42
$WIMTW,25.0,C*0A
$GPGLL,4440.3051,N,00111.5485,W,144834.000,A,A*4B
$WIMWV,56.5,R,11.3,N,A*26
$GPRMC,144834.000,A,4440.3051,N,00111.5485,W,4.76,219.90,201205,,,A*7E
$SDDBT,29.6,f,9.0,M,4.9,F*3F
$VWVHW,,,,,2.73,N,5.05,K*4B
$WIMTW,25.0,C*0A
$GPGLL,4440.3042,N,00111.5497,W,144835.000,A,A*4B
$WIMWV,73.5,R,11.0,N,A*22
$GPRMC,144835.000,A,4440.3042,N,00111.5497,W,4.82,221.65,201205,,,A*74
!AIVDM,1,1,,A,13INo2001dOrL1HISQWBhR980hE4,0*6F
$SDDBT,29.9,f,9.1,M,4.9,F*31
$VWVHW,,,,,2.56,N,4.74,K*4B
$WIMTW,25.0,C*0A
$WIMWV,65.0,R,10.7,N,A*26
$GPGLL,4440.3032,N,00111.5510,W,144836.000,A,A*41
$SDDBT,29.9,f,9.1,M,4.9,F*31
$GPRMC,144836.000,A,4440.3032,N,00111.5510,W,4.86,222.47,201205,,,A*79
$VWVHW,,,,,2.56,N,4.74,K*4B
$WIMTW,25.0,C*0A
$WIMWV,70.5,R,10.1,N,A*21
$GPGLL,4440.3022,N,00111.5523,W,144837.000,A,A*41
$SDDBT,30.1,f,9.1,M,5.0,F*39
$VWVHW,,,,,2.56,N,4.74,K*4B
$WIMTW,25.0,C*0A
$WIMWV,71.5,R,10.8,N,A*29
$GPRMC,144838.000,A,4440.3012,N,00111.5535,W,4.71,221.31,201205,,,A*78
$SDDBT,29.7,f,9.0,M,4.9,F*3E
$VWVHW,,,,,2.36,N,4.37,K*4A
$WIMTW,25.0,C*0A
$WIMWV,63.5,R,10.5,N,A*27
$GPGLL,4440.3002,N,00111.5547,W,144839.000,A,A*4F
$GPRMC,144839.000,A,4440.3002,N,00111.5547,W,4.77,220.78,201205,,,A*77
$SDDBT,30.3,f,9.2,M,5.0,F*38
$VWVHW,,,,,2.86,N,5.29,K*4F
$WIMTW,25.0,C*0A
$WIMWV,71.5,R,10.5,N,A*24
$GPGLL,4440.2992,N,00111.5559,W,144840.000,A,A*4F
$GPRMC,144840.000,A,4440.2992,N,00111.5559,W,4.75,220.25,201205,,,A*7D
$SDDBT,30.1,f,9.1,M,5.0,F*39
$VWVHW,,,,,2.86,N,5.29,K*4F
$WIMWV,70.0,R,10.4,N,A*21
$WIMTW,25.0,C*0A
$GPGLL,4440.2982,N,00111.5571,W,144841.000,A,A*45
$SDDBT,30.1,f,9.1,M,5.0,F*39
$GPRMC,144841.000,A,4440.2982,N,00111.5571,W,4.77,221.21,201205,,,A*70
$WIMWV,71.5,R,9.3,N,A*1A
$VWVHW,,,,,2.51,N,4.64,K*4D
$WIMTW,25.0,C*0A
!AIVDM,1,1,,A,13IN@G7001wr5t4ITl@sC@OD08I3,0*6A
$GPGLL,4440.2972,N,00111.5583,W,144842.000,A,A*44
$SDDBT,31.8,f,9.6,M,5.3,F*35
$WIMWV,57.5,R,10.0,N,A*25
$VWVHW,,,,,2.62,N,4.85,K*42
$WIMTW,25.0,C*0A
$GPRMC,144843.000,A,4440.2963,N,00111.5595,W,4.76,219.98,201205,,,A*7F
$WIMWV,73.0,R,9.9,N,A*17
$SDDBT,31.4,f,9.5,M,5.2,F*3B
$VWVHW,,,,,2.62,N,4.85,K*42
$WIMTW,25.0,C*0A
$GPGLL,4440.2952,N,00111.5607,W,144844.000,A,A*4F
$GPRMC,144844.000,A,4440.2952,N,00111.5607,W,4.77,216.59,201205,,,A*71
!AIVDM,1,1,,A,B3L0mk@01OvR1LVHjBPF7wv43P06,0*3D
!AIVDM,1,1,,A,H3L0mk@8uDDF1`E0PU:0TTV2220,2*11
!AIVDM,1,1,,A,H3L0mkDN19C401:qqUPPPP0@8070,0*43
$WIMWV,71.5,R,10.7,N,A*26
$SDDBT,31.9,f,9.7,M,5.3,F*35
!AIVDM,1,1,,A,C3Vk?V000?vSrL6Iw7vBkTN0P:`Ba0HNB71SKkk:000000D2RRR0,0*31
$VWVHW,,,,,2.80,N,5.18,K*4B
$WIMTW,25.0,C*0A
$GPGLL,4440.2942,N,00111.5619,W,144845.000,A,A*40
$GPRMC,144845.000,A,4440.2942,N,00111.5619,W,4.77,219.93,201205,,,A*77
!AIVDM,1,1,,A,C3Vk?V000?vSrL6Iw7vBkTN0P:`Ba0HNB71SKkk:000000D2RRR0,0*31
$WIMWV,70.0,R,10.5,N,A*20
$SDDBT,31.9,f,9.7,M,5.3,F*35
$VWVHW,,,,,2.73,N,5.05,K*4B
$WIMTW,25.0,C*0A
$GPGLL,4440.2932,N,00111.5631,W,144846.000,A,A*4E
$WIMWV,64.5,R,10.6,N,A*23
$SDDBT,32.2,f,9.8,M,5.3,F*32
$GPRMC,144846.000,A,4440.2932,N,00111.5631,W,4.83,219.44,201205,,,A*78
$VWVHW,,,,,2.67,N,4.94,K*47
$WIMTW,25.0,C*0A
$GPGLL,4440.2922,N,00111.5643,W,144847.000,A,A*4B
!AIVDM,1,1,,A,D02:ng@N`Nfq6DO6D0,4*1F
$WIMWV,71.5,R,10.5,N,A*24
$SDDBT,32.2,f,9.8,M,5.3,F*32
$VWVHW,,,,,2.93,N,5.42,K*46
$WIMTW,25.0,C*0A
!AIVDM,1,1,,A,33I@;<7PA9OrEPbIQ21Pm0AR023h,0*21
$GPRMC,144848.000,A,4440.2911,N,00111.5654,W,4.83,218.45,201205,,,A*74
$WIMWV,54.0,R,9.8,N,A*13
!AIVDM,1,1,,A,B3HUDfP00?vi9aVHe;EsgwpUoP06,0*3A
$SDDBT,32.5,f,9.9,M,5.4,F*33
$VWVHW,,,,,2.46,N,4.55,K*49
$WIMTW,25.0,C*0A
$GPGLL,4440.2901,N,00111.5667,W,144849.000,A,A*42
$GPRMC,144849.000,A,4440.2901,N,00111.5667,W,4.74,220.68,201205,,,A*78
$WIMWV,70.0,R,11.1,N,A*25
!AIVDM,1,1,,A,13IinA7000wrhSBISJbl;nwP08MG,0*7E
$SDDBT,32.5,f,9.9,M,5.4,F*33
$VWVHW,,,,,2.80,N,5.18,K*4B
$WIMTW,25.0,C*0A
$GPGLL,4440.2891,N,00111.5679,W,144850.000,A,A*4D
$GPRMC,144850.000,A,4440.2891,N,00111.5679,W,4.73,220.63,201205,,,A*7B
$WIMWV,62.0,R,9.7,N,A*19
$SDDBT,32.6,f,9.9,M,5.4,F*30
$VWVHW,,,,,2.67,N,4.94,K*47
$WIMTW,25.0,C*0A
$GPGLL,4440.2882,N,00111.5691,W,144851.000,A,A*48
!AIVDM,1,1,,A,B3II>8P00Ovcin6Hpj?Q3wqQnDf:,0*44
$WIMWV,77.0,R,11.3,N,A*20
$SDDBT,34.0,f,10.3,M,5.6,F*00
$GPRMC,144851.000,A,4440.2882,N,00111.5691,W,4.73,220.92,201205,,,A*70
$VWVHW,,,,,2.46,N,4.55,K*49
$WIMTW,25.0,C*0A
!AIVDM,1,1,,A,B3I1I100KGvVWn6HnVJOWwU5kP06,0*7C
$GPGLL,4440.2872,N,00111.5703,W,144852.000,A,A*4E
$WIMWV,76.0,R,10.2,N,A*21
$SDDBT,34.5,f,10.5,M,5.7,F*02
$VWVHW,,,,,2.56,N,4.74,K*4B
!AIVDM,1,1,,A,13Hq<wP000OrabPISbr;NHGb0@OD,0*31
$WIMTW,25.0,C*0A
$GPRMC,144853.000,A,4440.2863,N,00111.5716,W,4.64,223.23,201205,,,A*7C
$WIMWV,68.0,R,9.6,N,A*12
$SDDBT,34.1,f,10.3,M,5.6,F*01
$VWVHW,,,,,2.86,N,5.29,K*4F
$WIMTW,25.0,C*0A
$GPGLL,4440.2854,N,00111.5728,W,144854.000,A,A*45
$GPRMC,144854.000,A,4440.2854,N,00111.5728,W,4.56,224.09,201205,,,A*7C
$WIMWV,73.5,R,11.7,N,A*25
!AIVDM,1,1,,A,13INo2001cOrLIlISRJBfB;h0PSG,0*3B
$SDDBT,34.8,f,10.6,M,5.8,F*03
!AIVDM,1,1,,A,13I@;<7PA9OrER8IQ2ShV@9h00Rm,0*4E
$VWVHW,,,,,2.56,N,4.74,K*4B
$WIMTW,25.0,C*0A
$GPGLL,4440.2845,N,00111.5741,W,144855.000,A,A*4B
$GPRMC,144855.000,A,4440.2845,N,00111.5741,W,4.63,222.40,201205,,,A*7F
$WIMWV,76.5,R,10.1,N,A*27
$SDDBT,35.0,f,10.6,M,5.8,F*0A
$VWVHW,,,,,2.36,N,4.37,K*4A
$WIMTW,25.0,C*0A
$GPGLL,4440.2835,N,00111.5753,W,144856.000,A,A*4C
$WIMWV,72.0,R,10.5,N,A*22
$SDDBT,35.4,f,10.7,M,5.9,F*0E
$GPRMC,144856.000,A,4440.2835,N,00111.5753,W,4.67,219.64,201205,,,A*72
$VWVHW,,,,,2.51,N,4.64,K*4D
$WIMTW,25.0,C*0A
$WIMWV,65.0,R,10.3,N,A*22
$GPGLL,4440.2825,N,00111.5764,W,144857.000,A,A*48
$SDDBT,35.1,f,10.6,M,5.8,F*0B
$VWVHW,,,,,2.51,N,4.64,K*4D
$WIMTW,25.0,C*0A
$WIMWV,79.5,R,10.3,N,A*2A
$GPRMC,144858.000,A,4440.2815,N,00111.5775,W,4.65,218.47,201205,,,A*78
$SDDBT,35.1,f,10.6,M,5.8,F*0B
$VWVHW,,,,,2.05,N,3.79,K*47
$WIMTW,25.0,C*0A
$GPGLL,4440.2805,N,00111.5787,W,144859.000,A,A*49
$WIMWV,60.5,R,10.3,N,A*22
$GPRMC,144859.000,A,4440.2805,N,00111.5787,W,4.60,218.79,201205,,,A*7D
$SDDBT,36.0,f,10.9,M,6.0,F*0D
$VWVHW,,,,,2.73,N,5.05,K*4B
$WIMTW,25.0,C*0A
!AIVDM,1,1,,A,C3Vk?c000?vS=k6I8<2jWTN0P:`Ba0HNB71aKaU:000000D2RRR0,0*7E
$GPGLL,4440.2795,N,00111.5798,W,144900.000,A,A*4C
$WIMWV,68.5,R,10.9,N,A*20
$GPRMC,144900.000,A,4440.2795,N,00111.5798,W,4.62,218.36,201205,,,A*71
!AIVDM,1,1,,A,C3Vk?c000?vS=k6I8<2jWTN0P:`Ba0HNB71aKaU:000000D2RRR0,0*7E
!AIVDM,1,1,,A,402:ngAvV2fi0OrB9RIRvHg00@0d,0*0D
!AIVDM,1,1,,A,C3Vk?c000?vS=k6I8<2jWTN0P:`Ba0HNB71aKaU:000000D2RRR0,0*7E
$SDDBT,36.9,f,11.2,M,6.1,F*0F
$VWVHW,,,,,1.81,N,3.35,K*40
$WIMTW,25.0,C*0A
$WIMWV,75.0,R,11.2,N,A*23
$GPGLL,4440.2786,N,00111.5810,W,144901.000,A,A*40
!AIVDM,1,1,,A,B3Hl40P0CovUfuVHWDH;swPUoP06,0*4D
$SDDBT,36.9,f,11.2,M,6.1,F*0F
$GPRMC,144901.000,A,4440.2786,N,00111.5810,W,4.65,220.94,201205,,,A*79
$VWVHW,,,,,2.28,N,4.22,K*41
$WIMTW,25.0,C*0A
!AIVDM,1,1,,A,33I@;<7019OrES8IQ37PGh6600pP,0*77
$WIMWV,60.0,R,11.1,N,A*24
$GPGLL,4440.2776,N,00111.5821,W,144902.000,A,A*4E
!AIVDM,1,1,,A,13IN@G7Oh1wr5t8ITl@sShJ40<09,0*7B
$SDDBT,36.3,f,11.0,M,6.0,F*06
$VWVHW,,,,,2.67,N,4.94,K*47
$WIMTW,25.0,C*0A
$WIMWV,67.5,R,11.6,N,A*21
$GPRMC,144903.000,A,4440.2767,N,00111.5833,W,4.66,220.73,201205,,,A*7F
$SDDBT,37.0,f,11.2,M,6.1,F*07
$VWVHW,,,,,2.16,N,4.00,K*4C
$WIMTW,25.0,C*0A
$WIMWV,66.0,R,11.6,N,A*25
$GPGLL,4440.2757,N,00111.5845,W,144904.000,A,A*49
$GPRMC,144904.000,A,4440.2757,N,00111.5845,W,4.67,221.58,201205,,,A*73
$SDDBT,35.8,f,10.9,M,5.9,F*0C
$VWVHW,,,,,2.41,N,4.46,K*4C
$WIMWV,60.5,R,10.5,N,A*24
$WIMTW,25.0,C*0A
$GPGLL,4440.2748,N,00111.5858,W,144905.000,A,A*4A
$GPRMC,144905.000,A,4440.2748,N,00111.5858,W,4.64,222.44,201205,,,A*7D
$SDDBT,31.4,f,9.5,M,5.2,F*3B
$WIMWV,64.5,R,10.8,N,A*2D
$VWVHW,,,,,2.62,N,4.85,K*42
$WIMTW,25.0,C*0A
$GPGLL,4440.2738,N,00111.5870,W,144906.000,A,A*44
$SDDBT,32.9,f,10.0,M,5.4,F*0E
$GPRMC,144906.000,A,4440.2738,N,00111.5870,W,4.65,221.77,201205,,,A*71
$WIMWV,70.5,R,11.0,N,A*21
$VWVHW,,,,,2.41,N,4.46,K*4C
$WIMTW,25.0,C*0A
$GPGLL,4440.2729,N,00111.5882,W,144907.000,A,A*48
$WIMWV,62.5,R,11.6,N,A*24
$SDDBT,32.9,f,10.0,M,5.4,F*0E
$VWVHW,,,,,2.36,N,4.37,K*4A
$WIMTW,25.0,C*0A
!AIVDM,1,1,,A,33I@;<7Oi9OrESjIQ3U0F@8B01sP,0*51
$GPRMC,144908.000,A,4440.2719,N,00111.5894,W,4.69,219.55,201205,,,A*71
$WIMWV,67.5,R,11.2,N,A*25
$SDDBT,32.0,f,9.7,M,5.3,F*3F
!AIVDM,1,1,,A,13IinA7000wrhSvISJdT;nv>00SV,0*1C
$VWVHW,,,,,2.62,N,4.85,K*42
$WIMTW,25.0,C*0A
$GPGLL,4440.2709,N,00111.5906,W,144909.000,A,A*49
$GPRMC,144909.000,A,4440.2709,N,00111.5906,W,4.64,220.63,201205,,,A*79
$WIMWV,65.0,R,11.0,N,A*20
$SDDBT,32.7,f,9.9,M,5.4,F*31
$VWVHW,,,,,2.46,N,4.55,K*49
$WIMTW,25.0,C*0A
$GPGLL,4440.2699,N,00111.5918,W,144910.000,A,A*46
$GPRMC,144910.000,A,4440.2699,N,00111.5918,W,4.66,219.59,201205,,,A*77
$WIMWV,68.0,R,10.9,N,A*25
$SDDBT,33.2,f,10.1,M,5.5,F*04
$VWVHW,,,,,2.46,N,4.55,K*49
$WIMTW,25.0,C*0A
$GPGLL,4440.2690,N,00111.5930,W,144911.000,A,A*44
!AIVDM,1,1,,A,B3L0mkP02?vQMf6I5DM`;wv43P06,0*04
$WIMWV,68.5,R,11.1,N,A*29
!AIVDM,1,1,,A,H3L0mkP8uDDF1`E0PU:0TTV2220,2*01
!AIVDM,1,1,,A,H3L0mkTN19C401:qnUPPPP0@8070,0*4C
$SDDBT,33.2,f,10.1,M,5.5,F*04
$GPRMC,144911.000,A,4440.2690,N,00111.5930,W,4.62,222.69,201205,,,A*7A
$VWVHW,,,,,2.62,N,4.85,K*42
$WIMTW,25.0,C*0A
!AIVDM,1,1,,A,B3Hbf`0007vm3<6I23?Q3wV5kP06,0*62
$GPGLL,4440.2680,N,00111.5942,W,144912.000,A,A*43
$WIMWV,70.0,R,10.5,N,A*20
$SDDBT,33.7,f,10.2,M,5.6,F*01
!AIVDM,1,1,,A,B3HpcSP0FWv`PgVHs;8gSwbUkP06,0*28
!AIVDM,1,1,,A,13Hq<wP000OrabLISbt;w`FJ087n,0*39
$VWVHW,,,,,2.80,N,5.18,K*4B
$WIMTW,25.0,C*0A
$GPRMC,144913.000,A,4440.2671,N,00111.5955,W,4.72,222.45,201205,,,A*7B
!AIVDM,1,1,,A,B3HwpM00=GvVv?VHmIFCSwVQhL0;,0*75
$WIMWV,58.5,R,11.0,N,A*2B
$SDDBT,34.6,f,10.5,M,5.7,F*01
$VWVHW,,,,,2.24,N,4.14,K*48
$WIMTW,25.0,C*0A
$GPGLL,4440.2662,N,00111.5968,W,144914.000,A,A*41
!AIVDM,1,1,,A,13INo20OidOrLiLISS:jiB>N0d0<,0*42
$GPRMC,144914.000,A,4440.2662,N,00111.5968,W,4.73,222.86,201205,,,A*7E
$WIMWV,72.5,R,11.2,N,A*21
!AIVDM,1,1,,A,13I@;<7019OrETtIQ480I08N05k4,0*0C
$SDDBT,35.0,f,10.6,M,5.8,F*0A
$VWVHW,,,,,2.73,N,5.05,K*4B
$WIMTW,25.0,C*0A
$GPGLL,4440.2652,N,00111.5980,W,144915.000,A,A*45
$GPRMC,144915.000,A,4440.2652,N,00111.5980,W,4.75,221.02,201205,,,A*73
$WIMWV,59.5,R,10.2,N,A*29
$SDDBT,35.2,f,10.7,M,5.8,F*09
$VWVHW,,,,,2.51,N,4.64,K*4D
$WIMTW,25.0,C*0A
$GPGLL,4440.2642,N,00111.5993,W,144916.000,A,A*45
$WIMWV,92.0,R,11.1,N,A*29
$SDDBT,35.9,f,10.9,M,5.9,F*0D
$GPRMC,144916.000,A,4440.2642,N,00111.5993,W,4.74,221.22,201205,,,A*70
$VWVHW,,,,,2.56,N,4.74,K*4B
$WIMTW,25.0,C*0A
$GPGLL,4440.2632,N,00111.6005,W,144917.000,A,A*46
$WIMWV,68.0,R,10.3,N,A*2F
!AIVDM,1,1,,A,D02:ngATtNfr<`O6D0,4*3D
$SDDBT,35.9,f,10.9,M,5.9,F*0D
$VWVHW,,,,,2.93,N,5.42,K*46
$WIMTW,25.0,C*0A
$GPRMC,144918.000,A,4440.2623,N,00111.6017,W,4.77,221.42,201205,,,A*7A
$WIMWV,70.5,R,11.2,N,A*23
$SDDBT,34.6,f,10.5,M,5.7,F*01
$VWVHW,,,,,2.28,N,4.22,K*41
$WIMTW,25.0,C*0A
$GPGLL,4440.2613,N,00111.6029,W,144919.000,A,A*45
$GPRMC,144919.000,A,4440.2613,N,00111.6029,W,4.69,217.62,201205,,,A*7D
$WIMWV,75.5,R,10.4,N,A*21
$SDDBT,34.1,f,10.3,M,5.6,F*01
$VWVHW,,,,,2.62,N,4.85,K*42
$WIMTW,25.0,C*0A
$GPGLL,4440.2602,N,00111.6040,W,144920.000,A,A*40
$GPRMC,144920.000,A,4440.2602,N,00111.6040,W,4.76,216.70,201205,,,A*74
$WIMWV,64.5,R,11.3,N,A*27
!AIVDM,1,1,,A,402:ngAvV2fiDOrB9LIRvIO00@<J,0*6C
$SDDBT,34.8,f,10.6,M,5.8,F*03
$VWVHW,,,,,2.56,N,4.74,K*4B
!AIVDM,1,1,,A,B3I?dO005WvUj@6HsGNkKwbWkP06,0*3A
$WIMTW,25.0,C*0A
$GPGLL,4440.2592,N,00111.6051,W,144921.000,A,A*4B
!AIVDM,1,1,,A,33I@;<701:OrEUvIQ4VhI@8d01:h,0*6B
$WIMWV,61.5,R,10.4,N,A*24
$SDDBT,33.6,f,10.2,M,5.6,F*00
$GPRMC,144921.000,A,4440.2592,N,00111.6051,W,4.78,215.25,201205,,,A*72
$VWVHW,,,,,2.36,N,4.37,K*4A
$WIMTW,25.0,C*0A
$WIMWV,77.5,R,11.2,N,A*24
$GPGLL,4440.2581,N,00111.6062,W,144922.000,A,A*4A
$SDDBT,33.6,f,10.2,M,5.6,F*00
$VWVHW,,,,,2.56,N,4.74,K*4B
$WIMTW,25.0,C*0A
$WIMWV,73.5,R,10.5,N,A*26
$GPRMC,144923.000,A,4440.2571,N,00111.6075,W,4.86,221.68,201205,,,A*74
$SDDBT,35.9,f,10.9,M,5.9,F*0D
$VWVHW,,,,,2.80,N,5.18,K*4B
$WIMTW,25.0,C*0A
$GPGLL,4440.2561,N,00111.6087,W,144924.000,A,A*49
$WIMWV,69.0,R,11.5,N,A*29
$GPRMC,144924.000,A,4440.2561,N,00111.6087,W,4.99,222.39,201205,,,A*76
$SDDBT,35.5,f,10.8,M,5.9,F*00
$VWVHW,,,,,2.73,N,5.05,K*4B
$WIMTW,25.0,C*0A
$WIMWV,73.0,R,11.6,N,A*21
$GPGLL,4440.2551,N,00111.6100,W,144925.000,A,A*45
$GPRMC,144925.000,A,4440.2551,N,00111.6100,W,4.97,219.27,201205,,,A*73
$SDDBT,36.5,f,11.1,M,6.0,F*01
$VWVHW,,,,,2.80,N,5.18,K*4B
$WIMTW,25.0,C*0A
$WIMWV,71.0,R,12.9,N,A*2F
$GPGLL,4440.2541,N,00111.6113,W,144926.000,A,A*45
$SDDBT,36.3,f,11.0,M,6.0,F*06
$GPRMC,144926.000,A,4440.2541,N,00111.6113,W,4.94,222.86,201205,,,A*73
$VWVHW,,,,,2.73,N,5.05,K*4B
$WIMTW,25.0,C*0A
$WIMWV,66.5,R,11.6,N,A*20
$GPGLL,4440.2530,N,00111.6127,W,144927.000,A,A*45
!AIVDM,1,1,,A,B3I@Rj00:7vUmUVHbWlAkweWkP06,0*65
$SDDBT,36.8,f,11.2,M,6.1,F*0E
$VWVHW,,,,,3.15,N,5.83,K*44
$WIMTW,25.0,C*0A
$WIMWV,70.0,R,11.6,N,A*22
$GPRMC,144928.000,A,4440.2520,N,00111.6140,W,5.09,220.91,201205,,,A*7D
$SDDBT,37.3,f,11.3,M,6.2,F*06
$VWVHW,,,,,2.86,N,5.29,K*4F
$WIMTW,25.0,C*0A
$WIMWV,69.0,R,10.8,N,A*25
$GPGLL,4440.2510,N,00111.6153,W,144929.000,A,A*4A
$GPRMC,144929.000,A,4440.2510,N,00111.6153,W,4.98,218.14,201205,,,A*72
!AIVDM,1,1,,A,B3I4W4P06WvUoqVHajh:Owg5kP06,0*65
$SDDBT,35.1,f,10.6,M,5.8,F*0B
$VWVHW,,,,,3.24,N,6.00,K*4E
$WIMTW,25.0,C*0A
$WIMWV,71.5,R,12.0,N,A*23
$GPGLL,4440.2499,N,00111.6165,W,144930.000,A,A*47
!AIVDM,1,1,,A,13IinA7000wrhSDISJf4;nvp0D09,0*7A
$GPRMC,144930.000,A,4440.2499,N,00111.6165,W,4.99,219.32,201205,,,A*7B
$SDDBT,35.1,f,10.6,M,5.8,F*0B
$VWVHW,,,,,2.67,N,4.94,K*47
$WIMTW,25.0,C*0A
$WIMWV,63.5,R,11.9,N,A*2A
$GPGLL,4440.2488,N,00111.6178,W,144931.000,A,A*4A
$SDDBT,36.0,f,10.9,M,6.0,F*0D
$WIMWV,61.5,R,12.0,N,A*22
$GPRMC,144931.000,A,4440.2488,N,00111.6178,W,5.06,220.88,201205,,,A*7A
$VWVHW,,,,,2.73,N,5.05,K*4B
$WIMTW,25.0,C*0A
$GPGLL,4440.2478,N,00111.6191,W,144932.000,A,A*41
$WIMWV,57.5,R,11.8,N,A*2C
$SDDBT,36.8,f,11.2,M,6.1,F*0E
$VWVLW,2540.3,N,0.91,N,,,,*44
$VWVLW,2540.4,N,0.91,N,,,,*43
$VWVLW,2540.4,N,0.91,N,,,,*43
$VWVHW,,,,,2.80,N,5.18,K*4B
$WIMTW,25.0,C*0A
$GPRMC,144933.000,A,4440.2468,N,00111.6204,W,4.95,221.68,201205,,,A*7A
$WIMWV,72.0,R,11.8,N,A*2E
$SDDBT,36.8,f,11.2,M,6.1,F*0E
$VWVHW,,,,,3.15,N,5.83,K*44
$WIMTW,25.0,C*0A
$GPGLL,4440.2458,N,00111.6218,W,144934.000,A,A*47
$GPRMC,144934.000,A,4440.2458,N,00111.6218,W,5.05,227.44,201205,,,A*73
!AIVDM,1,1,,A,13I@;<7PA9OrE`8IQ5dPIh9605k4,0*78
$WIMWV,68.5,R,12.1,N,A*2A
$SDDBT,36.5,f,11.1,M,6.0,F*01
$VWVHW,,,,,3.00,N,5.55,K*4B
$WIMTW,25.0,C*0A
$GPGLL,4440.2449,N,00111.6232,W,144935.000,A,A*4E
$GPRMC,144935.000,A,4440.2449,N,00111.6232,W,5.10,227.69,201205,,,A*71
!AIVDM,1,1,,A,13INo2001cOrM;LISSrjkR?80d0<,0*1C
$WIMWV,62.5,R,11.2,N,A*20
$SDDBT,36.6,f,11.1,M,6.1,F*03
$VWVHW,,,,,2.73,N,5.05,K*4B
$WIMTW,25.0,C*0A
$GPGLL,4440.2439,N,00111.6247,W,144936.000,A,A*48
$WIMWV,57.0,R,11.9,N,A*28
$SDDBT,36.6,f,11.1,M,6.1,F*03
$GPRMC,144936.000,A,4440.2439,N,00111.6247,W,5.07,225.56,201205,,,A*7F
$VWVHW,,,,,2.80,N,5.18,K*4B
$WIMTW,25.0,C*0A
$GPGLL,4440.2429,N,00111.6261,W,144937.000,A,A*4C
$WIMWV,67.5,R,11.1,N,A*26
$SDDBT,37.5,f,11.4,M,6.2,F*07
$VWVHW,,,,,3.24,N,6.00,K*4E
$WIMTW,25.0,C*0A
!AIVDM,1,1,,A,H3HpcSTt1=30000614ohji0H;330,0*0E
$GPRMC,144938.000,A,4440.2420,N,00111.6275,W,5.06,228.21,201205,,,A*74
$WIMWV,66.0,R,12.3,N,A*23
$SDDBT,37.1,f,11.3,M,6.1,F*07
$VWVHW,,,,,3.00,N,5.55,K*4B
$WIMTW,25.0,C*0A
$GPGLL,4440.2411,N,00111.6290,W,144939.000,A,A*47
$GPRMC,144939.000,A,4440.2411,N,00111.6290,W,5.05,228.27,201205,,,A*79
$WIMWV,65.0,R,11.1,N,A*21
$SDDBT,37.1,f,11.3,M,6.1,F*07
$VWVHW,,,,,2.67,N,4.94,K*47
$WIMTW,25.0,C*0A
$GPGLL,4440.2401,N,00111.6305,W,144940.000,A,A*45
$GPRMC,144940.000,A,4440.2401,N,00111.6305,W,5.02,225.50,201205,,,A*71
$WIMWV,64.5,R,12.1,N,A*26
!AIVDM,1,1,,A,402:ngAvV2fi`OrB9RIRvHg00@H8,0*79
$SDDBT,38.3,f,11.6,M,6.3,F*0D
$VWVHW,,,,,3.08,N,5.70,K*44
$WIMTW,25.0,C*0A
$GPGLL,4440.2392,N,00111.6319,W,144941.000,A,A*44
$WIMWV,62.5,R,10.6,N,A*25
$SDDBT,37.9,f,11.5,M,6.3,F*0B
$GPRMC,144941.000,A,4440.2392,N,00111.6319,W,4.94,225.69,201205,,,A*74
$VWVHW,,,,,2.80,N,5.18,K*4B
$WIMTW,25.0,C*0A
!AIVDM,1,1,,A,13IN@G7P@1wr5sPITl@j>@AD05k4,0*5B
$GPGLL,4440.2382,N,00111.6333,W,144942.000,A,A*4E
$WIMWV,68.5,R,11.7,N,A*2F
$SDDBT,35.8,f,10.9,M,5.9,F*0C
$VWVHW,,,,,3.00,N,5.55,K*4B
$WIMTW,25.0,C*0A
$GPRMC,144943.000,A,4440.2373,N,00111.6347,W,4.93,223.60,201205,,,A*7A
$WIMWV,61.5,R,10.9,N,A*29
$SDDBT,36.7,f,11.1,M,6.1,F*02
$VWVHW,,,,,2.93,N,5.42,K*46
$WIMTW,25.0,C*0A
$GPGLL,4440.2363,N,00111.6360,W,144944.000,A,A*41
!AIVDM,1,1,,A,B3L0mk002OvRFk6I4wsIGwv43P06,0*48
$GPRMC,144944.000,A,4440.2363,N,00111.6360,W,4.89,225.07,201205,,,A*75
!AIVDM,1,1,,A,H3L0mk08uDDF1`E0PU:0TTV2220,2*61
$WIMWV,67.5,R,12.4,N,A*20
!AIVDM,1,1,,A,H3L0mk4N19C401:ihhUPPP0@8070,0*0A
$SDDBT,36.7,f,11.1,M,6.1,F*02
$VWVHW,,,,,2.62,N,4.85,K*42
$WIMTW,25.0,C*0A
$GPGLL,4440.2354,N,00111.6374,W,144945.000,A,A*41
$WIMWV,68.0,R,10.8,N,A*24
$GPRMC,144945.000,A,4440.2354,N,00111.6374,W,4.92,223.81,201205,,,A*77
$SDDBT,37.4,f,11.3,M,6.2,F*01
$VWVHW,,,,,2.86,N,5.29,K*4F
$WIMTW,25.0,C*0A
$GPGLL,4440.2344,N,00111.6387,W,144946.000,A,A*4F
$WIMWV,62.5,R,11.7,N,A*25
$SDDBT,36.7,f,11.1,M,6.1,F*02
$GPRMC,144946.000,A,4440.2344,N,00111.6387,W,4.92,226.33,201205,,,A*75
$VWVHW,,,,,3.32,N,6.14,K*4C
$WIMTW,25.0,C*0A
!AIVDM,1,1,,A,H3ISd8P8T8uDpF3B00000000000,2*5B
$WIMWV,73.0,R,12.0,N,A*24
$GPGLL,4440.2335,N,00111.6401,W,144947.000,A,A*41
!AIVDM,1,1,,A,D02:ng@N`Nfq6DO6D0,4*1F
$SDDBT,36.2,f,11.0,M,6.0,F*07
$VWVHW,,,,,2.80,N,5.18,K*4B
$WIMTW,25.0,C*0A
$WIMWV,73.5,R,10.7,N,A*24
$GPRMC,144948.000,A,4440.2325,N,00111.6415,W,4.86,222.99,201205,,,A*71
$SDDBT,37.6,f,11.4,M,6.2,F*04
$VWVHW,,,,,2.56,N,4.74,K*4B
$WIMTW,25.0,C*0A
$GPGLL,4440.2315,N,00111.6428,W,144949.000,A,A*46
$WIMWV,62.5,R,10.9,N,A*2A
$GPRMC,144949.000,A,4440.2315,N,00111.6428,W,4.75,221.85,201205,,,A*7F
!AIVDM,1,1,,A,13IinA7000wrhSLISJg4;o1P05k4,0*32
$SDDBT,37.6,f,11.4,M,6.2,F*04
$VWVHW,,,,,2.86,N,5.29,K*4F
$WIMTW,25.0,C*0A
$WIMWV,68.5,R,10.3,N,A*2A
$GPGLL,4440.2305,N,00111.6440,W,144950.000,A,A*41
$GPRMC,144950.000,A,4440.2305,N,00111.6440,W,4.72,221.40,201205,,,A*76
$SDDBT,37.5,f,11.4,M,6.2,F*07
$VWVHW,,,,,2.46,N,4.55,K*49
$WIMTW,25.0,C*0A
$WIMWV,65.5,R,10.8,N,A*2C
$GPGLL,4440.2296,N,00111.6452,W,144951.000,A,A*48
$SDDBT,38.4,f,11.7,M,6.4,F*0C
$GPRMC,144951.000,A,4440.2296,N,00111.6452,W,4.66,221.56,201205,,,A*7D
$VWVHW,,,,,2.80,N,5.18,K*4B
$WIMTW,25.0,C*0A
$WIMWV,67.5,R,10.8,N,A*2E
$GPGLL,4440.2286,N,00111.6465,W,144952.000,A,A*4E
$SDDBT,38.4,f,11.7,M,6.4,F*0C
$VWVHW,,,,,2.56,N,4.74,K*4B
$WIMTW,25.0,C*0A
!AIVDM,1,1,,A,13Hq<wP000OrabDISbrcnHGb0<0;,0*21
$WIMWV,68.5,R,10.5,N,A*2C
$GPRMC,144953.000,A,4440.2276,N,00111.6476,W,4.63,218.30,201205,,,A*78
$SDDBT,39.5,f,12.0,M,6.5,F*09
!AIVDM,1,1,,A,H3HgD;Ph610E8hF0ptU8F222220,2*4E
$VWVHW,,,,,2.56,N,4.74,K*4B
$WIMTW,25.0,C*0A
$WIMWV,55.5,R,11.3,N,A*25
$GPGLL,4440.2267,N,00111.6488,W,144954.000,A,A*44
$GPRMC,144954.000,A,4440.2267,N,00111.6488,W,4.61,221.14,201205,,,A*70
!AIVDM,1,1,,A,13I@;<7019OrEbvIQ7:hKP=f0HP9,0*65
!AIVDM,1,1,,A,H3I0FuQ84hTd000000000000000,2*20
$SDDBT,39.4,f,12.0,M,6.5,F*08
$VWVHW,,,,,2.80,N,5.18,K*4B
$WIMTW,25.0,C*0A
$WIMWV,58.5,R,10.3,N,A*29
$GPGLL,4440.2257,N,00111.6500,W,144955.000,A,A*47
$GPRMC,144955.000,A,4440.2257,N,00111.6500,W,4.70,220.25,201205,,,A*70
!AIVDM,1,1,,A,B3I1I100JovVCpVHn7JRCwW5kP06,0*55
!AIVDM,1,1,,A,H3HgD;TU=SPHPi5613jnnj2P132A,0*51
$SDDBT,39.4,f,12.0,M,6.5,F*08
$WIMWV,66.5,R,10.9,N,A*2E
$VWVHW,,,,,3.00,N,5.55,K*4B
$WIMTW,25.0,C*0A
$GPGLL,4440.2247,N,00111.6512,W,144956.000,A,A*46
$SDDBT,40.2,f,12.2,M,6.7,F*00
$GPRMC,144956.000,A,4440.2247,N,00111.6512,W,4.68,222.15,201205,,,A*79
$VWVHW,,,,,2.86,N,5.29,K*4F
$WIMTW,25.0,C*0A
$WIMWV,69.0,R,11.1,N,A*2D
$GPGLL,4440.2238,N,00111.6524,W,144957.000,A,A*4A
!AIVDM,1,1,,A,C3K`Q@dH0?vSB86J2MNcKwP0P:`Ba0HNB711WKcW:00000000020,0*28
$WIMWV,54.0,R,11.3,N,A*21
$SDDBT,40.8,f,12.4,M,6.8,F*03
!AIVDM,1,1,,A,C3K`Q@dH0?vSB86J2MNcKwP0P:`Ba0HNB711WKcW:00000000020,0*28
$VWVHW,,,,,2.56,N,4.74,K*4B
$WIMTW,25.0,C*0A
!AIVDM,1,1,,A,C3K`Q@dH0?vSB86J2MNcKwP0P:`Ba0HNB711WKcW:00000000020,0*28
$GPRMC,144958.000,A,4440.2229,N,00111.6537,W,4.58,224.15,201205,,,A*7D
$WIMWV,66.5,R,11.4,N,A*22
$SDDBT,40.3,f,12.2,M,6.7,F*01
$VWVHW,,,,,2.62,N,4.85,K*42
$WIMTW,25.0,C*0A
$GPGLL,4440.2220,N,00111.6550,W,144959.000,A,A*4E
$GPRMC,144959.000,A,4440.2220,N,00111.6550,W,4.59,225.71,201205,,,A*76
$WIMWV,58.5,R,10.8,N,A*22
$SDDBT,40.1,f,12.2,M,6.6,F*02
$VWVHW,,,,,2.46,N,4.55,K*49
$WIMTW,25.0,C*0A
!AIVDM,1,1,,A,B3Hl40P0CWvUl46H`OT=SwP5oP06,0*38
$GPGLL,4440.2211,N,00111.6563,W,145000.000,A,A*48
$GPRMC,145000.000,A,4440.2211,N,00111.6563,W,4.56,226.30,201205,,,A*79
$WIMWV,63.5,R,11.1,N,A*22
!AIVDM,1,1,,A,402:ngAvV2fisOrB9TIRvGw00<0<,0*73
$SDDBT,39.5,f,12.0,M,6.5,F*09
$VWVHW,,,,,2.62,N,4.85,K*42
$WIMTW,25.0,C*0A
$GPGLL,4440.2203,N,00111.6576,W,145001.000,A,A*4E
$WIMWV,60.0,R,11.0,N,A*25
$SDDBT,39.1,f,11.9,M,6.5,F*07
$GPRMC,145001.000,A,4440.2203,N,00111.6576,W,4.53,227.21,201205,,,A*7B
$VWVHW,,,,,2.56,N,4.74,K*4B
$WIMTW,25.0,C*0A
$GPGLL,4440.2194,N,00111.6589,W,145002.000,A,A*40
$WIMWV,57.5,R,11.7,N,A*23
!AIVDM,1,1,,A,13IN@G7Oh1wr5sBITlAJe0H4081l,0*02
$SDDBT,38.0,f,11.5,M,6.3,F*0D
$VWVHW,,,,,2.24,N,4.14,K*48
$WIMTW,25.0,C*0A
$GPRMC,145003.000,A,4440.2186,N,00111.6602,W,4.46,225.78,201205,,,A*7D
$WIMWV,69.5,R,10.7,N,A*2F
$SDDBT,36.6,f,11.1,M,6.1,F*03
!AIVDM,1,1,,A,C3Vk?h001?vSoA6Igt5ncTN0P:`Ba0HNB71UKUW:000000D2RRR0,0*2E
$VWVHW,,,,,3.00,N,5.55,K*4B
$WIMTW,25.0,C*0A
$GPGLL,4440.2177,N,00111.6615,W,145004.000,A,A*4D
!AIVDM,1,1,,A,C3Vk?h001?vSoA6Igt5ncTN0P:`Ba0HNB71UKUW:000000D2RRR0,0*2E
$GPRMC,145004.000,A,4440.2177,N,00111.6615,W,4.56,227.54,201205,,,A*7F
$WIMWV,53.0,R,11.9,N,A*2C
!AIVDM,1,1,,A,C3Vk?h001?vSoA6Igt5ncTN0P:`Ba0HNB71UKUW:000000D2RRR0,0*2E
$SDDBT,37.2,f,11.3,M,6.2,F*07
$VWVHW,,,,,2.28,N,4.22,K*41
$WIMTW,25.0,C*0A
$GPGLL,4440.2169,N,00111.6627,W,145005.000,A,A*42
$GPRMC,145005.000,A,4440.2169,N,00111.6627,W,4.49,223.88,201205,,,A*7B
$WIMWV,57.5,R,10.6,N,A*23
!AIVDM,1,1,,A,H3I0FuTUC=D5H<>672jppi0p5310,0*24
$SDDBT,37.1,f,11.3,M,6.1,F*07
$VWVHW,,,,,2.56,N,4.74,K*4B
$WIMTW,25.0,C*0A
$GPGLL,4440.2160,N,00111.6640,W,145006.000,A,A*49
$WIMWV,63.5,R,11.2,N,A*21
$SDDBT,37.4,f,11.3,M,6.2,F*01
$GPRMC,145006.000,A,4440.2160,N,00111.6640,W,4.41,224.81,201205,,,A*76
$VWVHW,,,,,2.16,N,4.00,K*4C
$WIMTW,25.0,C*0A
$GPGLL,4440.2151,N,00111.6652,W,145007.000,A,A*49
$WIMWV,66.0,R,10.5,N,A*27
$SDDBT,37.7,f,11.4,M,6.2,F*05
$VWVHW,,,,,2.73,N,5.05,K*4B
$WIMTW,25.0,C*0A
$GPRMC,145008.000,A,4440.2143,N,00111.6665,W,4.43,227.42,201205,,,A*70
$WIMWV,56.5,R,10.9,N,A*2D
!AIVDM,1,1,,A,B3ISd8P00?vci5VHp`wQ3wTQnDlb,0*7A
$SDDBT,37.7,f,11.4,M,6.2,F*05
$VWVHW,,,,,2.08,N,3.85,K*49
$WIMTW,25.0,C*0A
$GPGLL,4440.2135,N,00111.6677,W,145009.000,A,A*42
$GPRMC,145009.000,A,4440.2135,N,00111.6677,W,4.33,228.32,201205,,,A*7C
$WIMWV,62.0,R,11.1,N,A*26
!AIVDM,1,1,,A,13IinA7000wrhSlISJfT;nv@0D09,0*02
$SDDBT,38.6,f,11.7,M,6.4,F*0E
$VWVHW,,,,,2.62,N,4.85,K*42
$WIMTW,25.0,C*0A
$GPGLL,4440.2127,N,00111.6690,W,145010.000,A,A*40
$WIMWV,55.0,R,11.0,N,A*23
$GPRMC,145010.000,A,4440.2127,N,00111.6690,W,4.42,229.61,201205,,,A*7F
$SDDBT,39.8,f,12.1,M,6.6,F*06
!AIVDM,1,1,,A,B8dBL4h04wvGw:6HjCwO;wv43P06,0*61
$VWVHW,,,,,2.05,N,3.79,K*47
$WIMTW,25.0,C*0A
!AIVDM,1,1,,A,H8dBL4h8uDDF0u8Ttr3:2222220,2*7F
!AIVDM,1,1,,A,H8dBL4l0BCP00012?ijklm;H0000,0*13
$GPGLL,4440.2119,N,00111.6704,W,145011.000,A,A*40
$WIMWV,69.5,R,10.8,N,A*20
$SDDBT,41.0,f,12.4,M,6.8,F*0A
$GPRMC,145011.000,A,4440.2119,N,00111.6704,W,4.43,230.59,201205,,,A*7D
$VWVHW,,,,,2.01,N,3.72,K*48
$WIMTW,25.0,C*0A
$WIMWV,63.0,R,10.9,N,A*2E
$GPGLL,4440.2112,N,00111.6717,W,145012.000,A,A*4A
$SDDBT,41.2,f,12.5,M,6.8,F*09
$VWVHW,,,,,2.56,N,4.74,K*4B
!AIVDM,1,1,,A,13Hq<wP000OrabHISbs;G`FJ05k8,0*0D
$WIMTW,25.0,C*0A
$WIMWV,57.5,R,10.5,N,A*20
$GPRMC,145013.000,A,4440.2104,N,00111.6730,W,4.35,227.90,201205,,,A*76
!AIVDM,1,1,,A,B3HwpM00=WvVmA6Hlw:H;wVQhH89,0*4E
$SDDBT,41.7,f,12.7,M,6.9,F*0F
$VWVHW,,,,,2.24,N,4.14,K*48
$WIMTW,25.0,C*0A
$WIMWV,68.0,R,11.1,N,A*2C
$GPGLL,4440.2096,N,00111.6742,W,145014.000,A,A*41
$GPRMC,145014.000,A,4440.2096,N,00111.6742,W,4.37,227.26,201205,,,A*71
!AIVDM,1,1,,A,13I@;<7019OrEebIQ8l@>c<N00S>,0*14
!AIVDM,1,1,,A,B3HpcSP0FWv`hVVHsglcWwcUkP06,0*28
$SDDBT,39.7,f,12.1,M,6.6,F*09
$VWVHW,,,,,2.56,N,4.74,K*4B
$WIMTW,25.0,C*0A
$WIMWV,62.0,R,10.3,N,A*25
$GPGLL,4440.2088,N,00111.6755,W,145015.000,A,A*49
$GPRMC,145015.000,A,4440.2088,N,00111.6755,W,4.44,227.80,201205,,,A*71
$SDDBT,39.6,f,12.0,M,6.6,F*09
$VWVHW,,,,,2.56,N,4.74,K*4B
$WIMTW,25.4,C*0E
$WIMWV,65.0,R,9.4,N,A*1D
$GPGLL,4440.2079,N,00111.6768,W,145016.000,A,A*4A
!AIVDM,1,1,,A,B3P;7L@00?vd816Ho;JuCw`UWP06,0*36
$SDDBT,39.6,f,12.0,M,6.6,F*09
$VWVHW,,,,,2.32,N,4.29,K*41
$GPRMC,145016.000,A,4440.2079,N,00111.6768,W,4.45,226.37,201205,,,A*7E
$WIMTW,25.4,C*0E
$WIMWV,62.0,R,10.1,N,A*27
$GPGLL,4440.2071,N,00111.6780,W,145017.000,A,A*45
!AIVDM,1,1,,A,D02:ngATtNfr<`O6D0,4*3D
$SDDBT,39.3,f,11.9,M,6.5,F*05
$VWVHW,,,,,2.80,N,5.18,K*4B
$WIMTW,25.4,C*0E
$WIMWV,61.5,R,10.8,N,A*28
$GPRMC,145018.000,A,4440.2063,N,00111.6793,W,4.44,227.64,201205,,,A*79
$SDDBT,39.6,f,12.0,M,6.6,F*09
$VWVHW,,,,,2.56,N,4.74,K*4B
$WIMTW,25.4,C*0E
$WIMWV,60.0,R,10.1,N,A*25
$GPGLL,4440.2054,N,00111.6806,W,145019.000,A,A*4D
$GPRMC,145019.000,A,4440.2054,N,00111.6806,W,4.52,226.31,201205,,,A*79
$SDDBT,39.6,f,12.0,M,6.6,F*09
$VWVHW,,,,,2.46,N,4.55,K*49
$WIMTW,25.4,C*0E
$WIMWV,64.5,R,10.0,N,A*25
$GPGLL,4440.2046,N,00111.6819,W,145020.000,A,A*4A
$GPRMC,145020.000,A,4440.2046,N,00111.6819,W,4.44,224.61,201205,,,A*7E
!AIVDM,1,1,,A,402:ngAvV2fjCOrB9NIRvFg00<0<,0*4B
$SDDBT,39.4,f,12.0,M,6.5,F*08
$VWVHW,,,,,2.46,N,4.55,K*49
$WIMTW,25.4,C*0E
$WIMWV,61.5,R,10.7,N,A*27
$GPGLL,4440.2037,N,00111.6831,W,145021.000,A,A*47
!AIVDM,1,1,,A,B3I?dO005GvUj`6HsUOP3wbWkP06,0*5A
$SDDBT,40.2,f,12.2,M,6.7,F*00
$WIMWV,65.5,R,9.9,N,A*15
$GPRMC,145021.000,A,4440.2037,N,00111.6831,W,4.41,227.29,201205,,,A*79
$VWVHW,,,,,2.73,N,5.05,K*4B
$WIMTW,25.4,C*0E
!AIVDM,1,1,,A,13IN@G7002wr5s2ITlAbg@Hd0H=<,0*70
$GPGLL,4440.2029,N,00111.6844,W,145022.000,A,A*49
$WIMWV,66.5,R,10.0,N,A*27
$SDDBT,39.7,f,12.1,M,6.6,F*09
$VWVHW,,,,,2.41,N,4.46,K*4C
$WIMTW,25.4,C*0E
$GPRMC,145023.000,A,4440.2021,N,00111.6856,W,4.35,224.69,201205,,,A*79
$WIMWV,72.5,R,10.2,N,A*20
$SDDBT,40.1,f,12.2,M,6.6,F*02
$VWVHW,,,,,2.51,N,4.64,K*4D
$WIMTW,25.0,C*0A
$GPGLL,4440.2012,N,00111.6868,W,145024.000,A,A*49
$GPRMC,145024.000,A,4440.2012,N,00111.6868,W,4.35,222.72,201205,,,A*7F
$WIMWV,67.0,R,10.0,N,A*23
$SDDBT,40.2,f,12.2,M,6.7,F*00
$VWVHW,,,,,2.36,N,4.37,K*4A
$WIMTW,25.0,C*0A
$GPGLL,4440.2003,N,00111.6880,W,145025.000,A,A*4E
$GPRMC,145025.000,A,4440.2003,N,00111.6880,W,4.34,220.73,201205,,,A*7A
$WIMWV,67.5,R,10.4,N,A*22
$SDDBT,40.5,f,12.3,M,6.7,F*06
$VWVHW,,,,,2.24,N,4.14,K*48
$WIMTW,25.0,C*0A
$GPGLL,4440.1994,N,00111.6891,W,145026.000,A,A*49
$WIMWV,78.5,R,9.6,N,A*16
$SDDBT,40.7,f,12.4,M,6.7,F*03
$GPRMC,145026.000,A,4440.1994,N,00111.6891,W,4.31,219.95,201205,,,A*7A
$VWVHW,,,,,2.86,N,5.29,K*4F
$WIMTW,25.0,C*0A
$GPGLL,4440.1985,N,00111.6902,W,145027.000,A,A*43
!AIVDM,1,1,,A,B3I@Rj00;7vUqGVHc=p@7weWkP06,0*40
$WIMWV,64.0,R,10.6,N,A*26
$SDDBT,40.3,f,12.2,M,6.7,F*01
$VWVHW,,,,,2.46,N,4.55,K*49
$WIMTW,25.0,C*0A
$GPRMC,145028.000,A,4440.1977,N,00111.6913,W,4.27,224.02,201205,,,A*75
$WIMWV,65.5,R,10.6,N,A*22
$SDDBT,40.3,f,12.2,M,6.7,F*01
$VWVHW,,,,,2.32,N,4.29,K*41
$WIMTW,25.0,C*0A
$GPGLL,4440.1968,N,00111.6925,W,145029.000,A,A*4B
!AIVDM,1,1,,A,B3I4W4P09GvUqa6Hb@D<wwfUkP06,0*4E
$GPRMC,145029.000,A,4440.1968,N,00111.6925,W,4.24,224.43,201205,,,A*79
$WIMWV,66.0,R,10.2,N,A*20
$SDDBT,40.4,f,12.3,M,6.7,F*07
$VWVHW,,,,,2.56,N,4.74,K*4B
$WIMTW,25.0,C*0A
$GPGLL,4440.1960,N,00111.6937,W,145030.000,A,A*48
!AIVDM,1,1,,A,33IinA7000wrhS@ISJgl;nvp05tS,0*7A
$GPRMC,145030.000,A,4440.1960,N,00111.6937,W,4.24,225.88,201205,,,A*7C
$WIMWV,65.5,R,9.7,N,A*1B
$SDDBT,41.3,f,12.5,M,6.8,F*08
$VWVHW,,,,,2.36,N,4.37,K*4A
$WIMTW,25.0,C*0A
$GPGLL,4440.1952,N,00111.6949,W,145031.000,A,A*41
$WIMWV,63.0,R,9.6,N,A*19
$SDDBT,41.3,f,12.5,M,6.8,F*08
$GPRMC,145031.000,A,4440.1952,N,00111.6949,W,4.23,228.24,201205,,,A*79
$VWVHW,,,,,2.32,N,4.29,K*41
!AIVDM,1,1,,A,B3HgD;P00?vfj0VIFPQHOwgVSP06,0*3E
$WIMTW,25.0,C*0A
$GPGLL,4440.1945,N,00111.6961,W,145032.000,A,A*4E
$WIMWV,57.5,R,9.4,N,A*19
$SDDBT,41.3,f,12.5,M,6.8,F*08
$VWVHW,,,,,2.16,N,4.00,K*4C
$WIMTW,25.0,C*0A
!AIVDM,1,1,,A,B3IAk;000?vcl6VHorSQ3whQnD@J,0*13
$GPRMC,145033.000,A,4440.1937,N,00111.6974,W,4.19,226.58,201205,,,A*7A
$WIMWV,63.5,R,9.1,N,A*1B
!AIVDM,1,1,,A,13Hq<wP000Orab`ISbsulHG40<0;,0*46
$SDDBT,42.8,f,13.0,M,7.1,F*0C
$VWVHW,,,,,2.41,N,4.46,K*4C
$WIMTW,25.0,C*0A
$GPGLL,4440.1929,N,00111.6986,W,145034.000,A,A*4B
$GPRMC,145034.000,A,4440.1929,N,00111.6986,W,4.18,227.81,201205,,,A*7B
$WIMWV,61.5,R,8.9,N,A*10
!AIVDM,1,1,,A,13I@;<7Oi:OrEgLIQ:IP@h5600Ro,0*7F
$SDDBT,41.7,f,12.7,M,6.9,F*0F
$VWVHW,,,,,2.20,N,4.07,K*4E
$WIMTW,25.0,C*0A
$GPGLL,4440.1921,N,00111.6998,W,145035.000,A,A*4D
$WIMWV,60.0,R,8.9,N,A*14
$GPRMC,145035.000,A,4440.1921,N,00111.6998,W,4.28,227.48,201205,,,A*7B
!AIVDM,1,1,,A,13INo20OiaOrNDlISV<2kRA80`E4,0*71
$SDDBT,41.7,f,12.7,M,6.9,F*0F
$VWVHW,,,,,2.20,N,4.07,K*4E
$WIMTW,25.0,C*0A
$GPGLL,4440.1913,N,00111.7010,W,145036.000,A,A*47
$WIMWV,65.5,R,8.5,N,A*18
!AIVDM,1,1,,A,H3II>8PQDLu0PTj0TT000000000,2*7B
$SDDBT,40.8,f,12.4,M,6.8,F*03
$GPRMC,145036.000,A,4440.1913,N,00111.7010,W,4.25,225.68,201205,,,A*7C
$VWVHW,,,,,2.24,N,4.14,K*48
$WIMTW,25.0,C*0A
$WIMWV,70.0,R,9.5,N,A*18
$GPGLL,4440.1905,N,00111.7022,W,145037.000,A,A*40
$SDDBT,42.0,f,12.8,M,7.0,F*0C
$VWVHW,,,,,2.20,N,4.07,K*4E
$WIMTW,25.0,C*0A
$WIMWV,54.0,R,9.7,N,A*1C
$GPRMC,145038.000,A,4440.1897,N,00111.7034,W,4.27,224.81,201205,,,A*7D
$SDDBT,41.6,f,12.6,M,6.9,F*0F
$VWVHW,,,,,2.20,N,4.07,K*4E
$WIMTW,25.0,C*0A
$WIMWV,58.5,R,9.4,N,A*16
$GPGLL,4440.1889,N,00111.7047,W,145039.000,A,A*48
$GPRMC,145039.000,A,4440.1889,N,00111.7047,W,4.30,226.68,201205,,,A*74
$SDDBT,42.5,f,12.9,M,7.0,F*08
$VWVHW,,,,,2.41,N,4.46,K*4C
$WIMTW,25.0,C*0A
$WIMWV,60.5,R,9.8,N,A*11
$GPGLL,4440.1881,N,00111.7059,W,145040.000,A,A*41
$GPRMC,145040.000,A,4440.1881,N,00111.7059,W,4.25,225.96,201205,,,A*7B
!AIVDM,1,1,,A,402:ngAvV2fj`OrB9PIRvGg00<0<,0*77
$SDDBT,41.8,f,12.7,M,6.9,F*00
$VWVHW,,,,,2.16,N,4.00,K*4C
$WIMTW,25.0,C*0A
$WIMWV,51.0,R,9.6,N,A*18
$GPGLL,4440.1873,N,00111.7071,W,145041.000,A,A*47
!AIVDM,1,1,,A,B3L0mk@02gvR1BVHjB:JOwv43P06,0*06
!AIVDM,1,1,,A,H3L0mk@8uDDF1`E0PU:0TTV2220,2*11
!AIVDM,1,1,,A,H3L0mkDN19C401:qqUPPPP0@8070,0*43
$SDDBT,40.3,f,12.2,M,6.7,F*01
$GPRMC,145041.000,A,4440.1873,N,00111.7071,W,4.20,227.69,201205,,,A*7A
$VWVHW,,,,,2.67,N,4.94,K*47
$WIMTW,25.0,C*0A
$WIMWV,57.0,R,9.5,N,A*1D
!AIVDM,1,1,,A,13IN@G7002wr5s@ITlB;EhED00Rf,0*32
$GPGLL,4440.1866,N,00111.7084,W,145042.000,A,A*4A
$SDDBT,40.9,f,12.4,M,6.8,F*02
$VWVHW,,,,,2.28,N,4.22,K*41
$WIMTW,25.0,C*0A
$WIMWV,57.5,R,8.4,N,A*18
$GPRMC,145043.000,A,4440.1858,N,00111.7096,W,4.17,228.94,201205,,,A*71
$SDDBT,41.0,f,12.4,M,6.8,F*0A
$WIMWV,58.5,R,8.8,N,A*1B
$VWVHW,,,,,2.32,N,4.29,K*41
$WIMTW,25.0,C*0A
$GPGLL,4440.1851,N,00111.7108,W,145044.000,A,A*4D
$GPRMC,145044.000,A,4440.1851,N,00111.7108,W,4.14,227.95,201205,,,A*74
$SDDBT,40.3,f,12.2,M,6.7,F*01
$WIMWV,61.5,R,8.2,N,A*1B
$VWVHW,,,,,2.01,N,3.72,K*48
$WIMTW,25.0,C*0A
$GPGLL,4440.1843,N,00111.7120,W,145045.000,A,A*45
$GPRMC,145045.000,A,4440.1843,N,00111.7120,W,4.06,227.69,201205,,,A*7C
$SDDBT,40.8,f,12.4,M,6.8,F*03
$WIMWV,64.0,R,9.5,N,A*1D
$VWVHW,,,,,2.20,N,4.07,K*4E
$WIMTW,25.0,C*0A
$GPGLL,4440.1836,N,00111.7132,W,145046.000,A,A*47
$WIMWV,75.0,R,9.7,N,A*1F
$SDDBT,41.2,f,12.5,M,6.8,F*09
$GPRMC,145046.000,A,4440.1836,N,00111.7132,W,3.96,227.89,201205,,,A*7E
$VWVHW,,,,,2.12,N,3.92,K*44
$WIMTW,25.0,C*0A
$GPGLL,4440.1828,N,00111.7144,W,145047.000,A,A*48
!AIVDM,1,1,,A,D02:ng@N`Nfq6DO6D0,4*1F
$WIMWV,60.5,R,8.9,N,A*11
$SDDBT,41.2,f,12.5,M,6.8,F*09
$VWVHW,,,,,1.89,N,3.50,K*4B
$WIMTW,25.0,C*0A
$GPRMC,145048.000,A,4440.1821,N,00111.7155,W,3.96,225.30,201205,,,A*77
$WIMWV,64.5,R,9.2,N,A*1F
$SDDBT,41.3,f,12.5,M,6.8,F*08
$VWVHW,,,,,1.98,N,3.66,K*4E
$WIMTW,25.0,C*0A
$GPGLL,4440.1813,N,00111.7167,W,145049.000,A,A*4F
$GPRMC,145049.000,A,4440.1813,N,00111.7167,W,3.97,225.74,201205,,,A*77
!AIVDM,1,1,,A,13IinA7000wrhSFISJeD;nwP00Rf,0*63
$WIMWV,71.5,R,9.5,N,A*1C
$SDDBT,42.5,f,12.9,M,7.0,F*08
$VWVHW,,,,,2.24,N,4.14,K*48
$WIMTW,25.0,C*0A
$GPGLL,4440.1806,N,00111.7178,W,145050.000,A,A*4D
$GPRMC,145050.000,A,4440.1806,N,00111.7178,W,4.09,228.10,201205,,,A*7A
$WIMWV,66.0,R,9.5,N,A*1F
$SDDBT,41.1,f,12.5,M,6.8,F*0A
$VWVHW,,,,,2.16,N,4.00,K*4C
$WIMTW,25.0,C*0A
$GPGLL,4440.1798,N,00111.7190,W,145051.000,A,A*42
$WIMWV,64.5,R,9.8,N,A*15
$SDDBT,41.2,f,12.5,M,6.8,F*09
$GPRMC,145051.000,A,4440.1798,N,00111.7190,W,4.08,224.31,201205,,,A*7B
$VWVHW,,,,,2.08,N,3.85,K*49
$WIMTW,25.0,C*0A
$GPGLL,4440.1791,N,00111.7201,W,145052.000,A,A*43
$WIMWV,61.5,R,10.1,N,A*21
$SDDBT,41.2,f,12.5,M,6.8,F*09
$VWVHW,,,,,2.01,N,3.72,K*48
!AIVDM,1,1,,A,13Hq<wP000OrabdISbscK`Gb08OD,0*09
$WIMTW,25.0,C*0A
$GPRMC,145053.000,A,4440.1783,N,00111.7212,W,4.02,224.46,201205,,,A*70
$WIMWV,60.0,R,9.9,N,A*15
$SDDBT,42.5,f,12.9,M,7.0,F*08
$VWVHW,,,,,1.81,N,3.35,K*40
$WIMTW,25.0,C*0A
$GPGLL,4440.1775,N,00111.7224,W,145054.000,A,A*48
!AIVDM,1,1,,A,B3IdnHP00GvcflVHpGKQ3ws1jDKJ,0*4E
$GPRMC,145054.000,A,4440.1775,N,00111.7224,W,4.00,225.42,201205,,,A*7C
!AIVDM,1,1,,A,13I@;<701:OrEijIQ;rh@c?f0D08,0*62
$WIMWV,63.0,R,9.9,N,A*16
$SDDBT,40.9,f,12.4,M,6.8,F*02
$VWVHW,,,,,1.95,N,3.61,K*44
$WIMTW,25.0,C*0A
!AIVDM,1,1,,A,13INo2001aOrNe4ISVoBlR?h0l0<,0*54
$GPGLL,4440.1767,N,00111.7235,W,145055.000,A,A*4A
$GPRMC,145055.000,A,4440.1767,N,00111.7235,W,4.00,225.94,201205,,,A*75
$WIMWV,60.0,R,9.3,N,A*1F
!AIVDM,1,1,,A,B3I1I100IovV1a6HmMnOswW5kP06,0*25
$SDDBT,41.5,f,12.6,M,6.9,F*0C
$VWVHW,,,,,1.89,N,3.50,K*4B
$WIMTW,23.4,C*08
$GPGLL,4440.1760,N,00111.7246,W,145056.000,A,A*4A
$WIMWV,60.5,R,9.7,N,A*1E
$SDDBT,40.7,f,12.4,M,6.7,F*03
$GPRMC,145056.000,A,4440.1760,N,00111.7246,W,3.96,227.34,201205,,,A*75
$VWVHW,,,,,2.01,N,3.72,K*48
$WIMTW,23.4,C*08
$GPGLL,4440.1753,N,00111.7258,W,145057.000,A,A*44
$WIMWV,66.5,R,9.6,N,A*19
$SDDBT,41.4,f,12.6,M,6.9,F*0D
$VWVHW,,,,,1.98,N,3.66,K*4E
$WIMTW,23.4,C*08
$GPRMC,145058.000,A,4440.1746,N,00111.7270,W,3.98,229.78,201205,,,A*72
$WIMWV,70.5,R,8.7,N,A*1E
$SDDBT,41.4,f,12.6,M,6.9,F*0D
$VWVHW,,,,,2.01,N,3.72,K*48
$WIMTW,23.4,C*08
$GPGLL,4440.1739,N,00111.7282,W,145059.000,A,A*41
$WIMWV,73.5,R,8.7,N,A*1D
$GPRMC,145059.000,A,4440.1739,N,00111.7282,W,3.92,227.56,201205,,,A*7E
$SDDBT,41.8,f,12.7,M,6.9,F*00
$VWVHW,,,,,2.01,N,3.72,K*48
$WIMTW,23.4,C*08
$GPGLL,4440.1732,N,00111.7293,W,145100.000,A,A*47
$WIMWV,58.5,R,9.3,N,A*11
$GPRMC,145100.000,A,4440.1732,N,00111.7293,W,3.92,229.37,201205,,,A*71
!AIVDM,1,1,,A,B3Hl40P0CgvUqu6HaatA7wP5oP06,0*43
$SDDBT,41.8,f,12.7,M,6.9,F*00
$VWVHW,,,,,1.92,N,3.55,K*44
$WIMTW,23.4,C*08
$GPGLL,4440.1725,N,00111.7305,W,145101.000,A,A*4E
$WIMWV,66.5,R,9.6,N,A*19
$SDDBT,41.5,f,12.6,M,6.9,F*0C
$GPRMC,145101.000,A,4440.1725,N,00111.7305,W,3.92,228.46,201205,,,A*7F
$VWVHW,,,,,2.12,N,3.92,K*44
$WIMTW,23.4,C*08
$WIMWV,63.5,R,9.7,N,A*1D
$GPGLL,4440.1718,N,00111.7317,W,145102.000,A,A*40
!AIVDM,1,1,,A,13IN@G7000wr5sFITlBrw@J405k<,0*7C
!AIVDM,1,1,,A,C3Vk?c000?vS=bVI8;::3TN0P:`Ba0HNB71aKaU:000000D2RRR0,0*2C
$SDDBT,42.2,f,12.8,M,7.0,F*0E
$VWVHW,,,,,1.60,N,2.96,K*47
$WIMTW,23.4,C*08
!AIVDM,1,1,,A,C3Vk?c000?vS=bVI8;::3TN0P:`Ba0HNB71aKaU:000000D2RRR0,0*2C
$WIMWV,63.0,R,8.9,N,A*17
$GPRMC,145103.000,A,4440.1711,N,00111.7328,W,3.90,226.43,201205,,,A*7C
!AIVDM,1,1,,A,C3Vk?c000?vS=bVI8;::3TN0P:`Ba0HNB71aKaU:000000D2RRR0,0*2C
$SDDBT,41.2,f,12.5,M,6.8,F*09
$VWVHW,,,,,1.95,N,3.61,K*44
$WIMTW,25.0,C*0A
$WIMWV,61.5,R,9.7,N,A*1F
$GPGLL,4440.1703,N,00111.7340,W,145104.000,A,A*4E
$GPRMC,145104.000,A,4440.1703,N,00111.7340,W,3.88,227.84,201205,,,A*75
$SDDBT,41.1,f,12.5,M,6.8,F*0A
$VWVHW,,,,,2.16,N,4.00,K*4C
$WIMTW,25.0,C*0A
$WIMWV,60.5,R,10.1,N,A*20
$GPGLL,4440.1696,N,00111.7351,W,145105.000,A,A*42
$GPRMC,145105.000,A,4440.1696,N,00111.7351,W,4.01,227.80,201205,,,A*7B
$SDDBT,41.7,f,12.7,M,6.9,F*0F
$VWVHW,,,,,2.08,N,3.85,K*49
$WIMTW,25.0,C*0A
$WIMWV,63.5,R,9.6,N,A*1C
$GPGLL,4440.1689,N,00111.7363,W,145106.000,A,A*4E
$SDDBT,42.3,f,12.8,M,7.0,F*0F
$GPRMC,145106.000,A,4440.1689,N,00111.7363,W,3.95,224.26,201205,,,A*72
$VWVHW,,,,,1.89,N,3.50,K*4B
$WIMTW,25.0,C*0A
$WIMWV,72.0,R,10.3,N,A*24
$GPGLL,4440.1681,N,00111.7374,W,145107.000,A,A*41
$SDDBT,42.1,f,12.8,M,7.0,F*0D
$VWVHW,,,,,1.83,N,3.38,K*4F
$WIMWV,70.5,R,9.5,N,A*1D
$WIMTW,25.0,C*0A
$GPRMC,145108.000,A,4440.1674,N,00111.7385,W,4.00,223.84,201205,,,A*72
$SDDBT,42.4,f,12.9,M,7.0,F*09
$WIMWV,64.5,R,9.3,N,A*1E
$VWVHW,,,,,2.01,N,3.72,K*48
!AIVDM,1,1,,A,33INo20OiaOrNv>ISW<S5BTD0Qjh,0*16
$WIMTW,25.0,C*0A
$GPGLL,4440.1666,N,00111.7396,W,145109.000,A,A*4A
$GPRMC,145109.000,A,4440.1666,N,00111.7396,W,4.03,223.30,201205,,,A*7E
!AIVDM,1,1,,A,13IinA7000wrhSFISJfl;nv@0@5s,0*5B
$SDDBT,41.7,f,12.7,M,6.9,F*0F
$WIMWV,79.5,R,9.7,N,A*16
$VWVHW,,,,,2.20,N,4.07,K*4E
$WIMTW,25.0,C*0A
$GPGLL,4440.1658,N,00111.7407,W,145110.000,A,A*40
$GPRMC,145110.000,A,4440.1658,N,00111.7407,W,4.08,223.97,201205,,,A*72
$WIMWV,69.5,R,9.8,N,A*18
!AIVDM,2,1,8,A,53IinA822jO@Hh8F220JuJ0hF1<thU@4U8F3:20N10:4340Ht:5R1`<M`1E8,0*47
!AIVDM,2,2,8,A,=up88888880,2*2C
$SDDBT,42.0,f,12.8,M,7.0,F*0C
$VWVHW,,,,,2.16,N,4.00,K*4C
$WIMTW,25.0,C*0A
$GPGLL,4440.1650,N,00111.7418,W,145111.000,A,A*47
$WIMWV,66.5,R,9.9,N,A*16
$SDDBT,42.3,f,12.8,M,7.0,F*0F
$GPRMC,145111.000,A,4440.1650,N,00111.7418,W,4.13,223.90,201205,,,A*78
$VWVHW,,,,,1.86,N,3.44,K*41
$WIMTW,25.0,C*0A
$GPGLL,4440.1642,N,00111.7429,W,145112.000,A,A*45
$WIMWV,79.0,R,11.3,N,A*2E
$SDDBT,41.9,f,12.7,M,6.9,F*01
!AIVDM,1,1,,A,33Hq<wP000OrabhISbsL78DJ05v3,0*64
$VWVHW,,,,,1.98,N,3.66,K*4E
$WIMTW,25.0,C*0A
$GPRMC,145113.000,A,4440.1633,N,00111.7440,W,4.11,223.63,201205,,,A*7C
!AIVDM,1,1,,A,B3HpcSP0GWva0S6Ht5@i3wc5kP06,0*62
$WIMWV,72.5,R,10.5,N,A*27
$SDDBT,42.2,f,12.8,M,7.0,F*0E
$VWVHW,,,,,2.05,N,3.79,K*47
$WIMTW,25.0,C*0A
$GPGLL,4440.1625,N,00111.7451,W,145114.000,A,A*4D
!AIVDM,1,1,,A,13INo2001aOrO4RISW@S;RTN0Uk<,0*25
$GPRMC,145114.000,A,4440.1625,N,00111.7451,W,4.19,222.50,201205,,,A*75
!AIVDM,1,1,,A,B3L0mkP01wvQMT6I5E;0Cwv43P06,0*22
!AIVDM,1,1,,A,H3L0mkP8uDDF1`E0PU:0TTV2220,2*01
!AIVDM,1,1,,A,H3L0mkTN19C401:qnUPPPP0@8070,0*4C
$WIMWV,73.5,R,11.3,N,A*21
!AIVDM,1,1,,A,13I@;<701:OrEl6IQ=W0Ah4P0D08,0*77
$SDDBT,42.2,f,12.8,M,7.0,F*0E
$VWVHW,,,,,2.20,N,4.07,K*4E
$WIMTW,25.0,C*0A
$GPGLL,4440.1617,N,00111.7463,W,145115.000,A,A*4C
$GPRMC,145115.000,A,4440.1617,N,00111.7463,W,4.17,223.53,201205,,,A*78
$WIMWV,83.0,R,10.9,N,A*20
$SDDBT,41.8,f,12.7,M,6.9,F*00
$VWVHW,,,,,2.32,N,4.29,K*41
$WIMTW,25.0,C*0A
$GPGLL,4440.1609,N,00111.7474,W,145116.000,A,A*46
$WIMWV,70.0,R,9.9,N,A*14
$SDDBT,41.9,f,12.7,M,6.9,F*01
$GPRMC,145116.000,A,4440.1609,N,00111.7474,W,4.29,224.51,201205,,,A*7A
$VWVHW,,,,,2.28,N,4.22,K*41
$WIMTW,25.0,C*0A
$GPGLL,4440.1600,N,00111.7486,W,145117.000,A,A*43
$WIMWV,73.5,R,10.4,N,A*27
!AIVDM,1,1,,A,D02:ngATtNfr<`O6D0,4*3D
$SDDBT,42.5,f,12.9,M,7.0,F*08
$VWVHW,,,,,2.32,N,4.29,K*41
$WIMTW,25.0,C*0A
$GPRMC,145118.000,A,4440.1592,N,00111.7497,W,4.24,221.75,201205,,,A*76
$WIMWV,64.5,R,10.2,N,A*27
$SDDBT,42.4,f,12.9,M,7.0,F*09
$VWVHW,,,,,2.41,N,4.46,K*4C
$WIMTW,25.0,C*0A
$GPGLL,4440.1583,N,00111.7509,W,145119.000,A,A*43
$GPRMC,145119.000,A,4440.1583,N,00111.7509,W,4.38,224.74,201205,,,A*78
$WIMWV,67.0,R,10.8,N,A*2B
$SDDBT,43.0,f,13.1,M,7.1,F*04
$VWVHW,,,,,2.24,N,4.14,K*48
$WIMTW,25.0,C*0A
$GPGLL,4440.1574,N,00111.7521,W,145120.000,A,A*4B
$GPRMC,145120.000,A,4440.1574,N,00111.7521,W,4.39,222.17,201205,,,A*72
$WIMWV,63.5,R,9.5,N,A*1F
!AIVDM,1,1,,A,402:ngAvV2fkDOrB9dIRvI?008<J,0*4E
$SDDBT,42.5,f,12.9,M,7.0,F*08
$VWVHW,,,,,2.05,N,3.79,K*47
$WIMTW,25.0,C*0A
$GPGLL,4440.1566,N,00111.7533,W,145121.000,A,A*4A
!AIVDM,1,1,,A,B3I?dO007GvUn@6Hsb9DGwbWkP06,0*5D
$WIMWV,74.5,R,10.2,N,A*26
$SDDBT,43.2,f,13.1,M,7.2,F*05
$GPRMC,145121.000,A,4440.1566,N,00111.7533,W,4.32,222.14,201205,,,A*7B
$VWVHW,,,,,2.12,N,3.92,K*44
$WIMTW,25.0,C*0A
!AIVDM,1,1,,A,13IN@G7000wr5sJITlBJmhJd0D09,0*05
$GPGLL,4440.1557,N,00111.7544,W,145122.000,A,A*4B
$WIMWV,66.0,R,10.4,N,A*26
$SDDBT,42.9,f,13.0,M,7.1,F*0D
$VWVHW,,,,,2.51,N,4.64,K*4D
$WIMTW,25.0,C*0A
$GPRMC,145123.000,A,4440.1548,N,00111.7556,W,4.39,223.60,201205,,,A*7F
$WIMWV,59.0,R,10.5,N,A*2B
$SDDBT,43.0,f,13.1,M,7.1,F*04
$VWVHW,,,,,2.20,N,4.07,K*4E
$WIMTW,25.0,C*0A
$GPGLL,4440.1540,N,00111.7568,W,145124.000,A,A*45
$WIMWV,73.5,R,11.0,N,A*22
$GPRMC,145124.000,A,4440.1540,N,00111.7568,W,4.33,223.55,201205,,,A*71
$SDDBT,43.8,f,13.3,M,7.3,F*0C
$VWVHW,,,,,2.24,N,4.14,K*48
$WIMTW,25.0,C*0A
!AIVDM,1,1,,A,H3IFnOQ9D8U<000000000000000,2*3C
$GPGLL,4440.1531,N,00111.7580,W,145125.000,A,A*44
$WIMWV,52.5,R,10.5,N,A*25
$GPRMC,145125.000,A,4440.1531,N,00111.7580,W,4.33,224.59,201205,,,A*7B
$SDDBT,43.8,f,13.3,M,7.3,F*0C
$VWVHW,,,,,2.51,N,4.64,K*4D
$WIMTW,25.0,C*0A
$GPGLL,4440.1523,N,00111.7592,W,145126.000,A,A*47
$WIMWV,63.5,R,11.5,N,A*26
!AIVDM,1,1,,A,B3I@Rj00;7vUu=VHcnH@swe7kP06,0*71
$SDDBT,42.5,f,12.9,M,7.0,F*08
$GPRMC,145126.000,A,4440.1523,N,00111.7592,W,4.39,226.43,201205,,,A*7B
$VWVHW,,,,,2.05,N,3.79,K*47
$WIMTW,25.0,C*0A
$WIMWV,62.0,R,10.3,N,A*25
$GPGLL,4440.1515,N,00111.7605,W,145127.000,A,A*4E
$SDDBT,43.8,f,13.3,M,7.3,F*0C
$VWVHW,,,,,2.05,N,3.79,K*47
$WIMTW,25.0,C*0A
$WIMWV,62.0,R,10.5,N,A*23
!AIVDM,1,1,,A,B3ILE`000Gvck0VHpU3Q3wf5oP06,0*39
$GPRMC,145128.000,A,4440.1507,N,00111.7617,W,4.23,226.64,201205,,,A*73
$SDDBT,43.0,f,13.1,M,7.1,F*04
$VWVHW,,,,,2.46,N,4.55,K*49
!AIVDM,1,1,,A,B3I4W4P097vUta6Hbj0BGwfUkP06,0*2B
$WIMTW,25.0,C*0A
$WIMWV,59.5,R,10.8,N,A*23
$GPGLL,4440.1499,N,00111.7629,W,145129.000,A,A*4B
$GPRMC,145129.000,A,4440.1499,N,00111.7629,W,4.29,227.31,201205,,,A*72
$SDDBT,43.0,f,13.1,M,7.1,F*04
$VWVHW,,,,,2.08,N,3.85,K*49
$WIMTW,25.0,C*0A
$WIMWV,60.0,R,10.4,N,A*20
$GPGLL,4440.1491,N,00111.7642,W,145130.000,A,A*46
!AIVDM,1,1,,A,13IinA7000wrhS`ISJfT;nvp0<09,0*46
$GPRMC,145130.000,A,4440.1491,N,00111.7642,W,4.32,228.43,201205,,,A*7F
$SDDBT,43.1,f,13.1,M,7.1,F*05
$VWVHW,,,,,2.01,N,3.72,K*48
$WIMTW,25.0,C*0A
$WIMWV,60.0,R,11.0,N,A*25
$GPGLL,4440.1483,N,00111.7654,W,145131.000,A,A*43
$SDDBT,43.3,f,13.1,M,7.2,F*04
$GPRMC,145131.000,A,4440.1483,N,00111.7654,W,4.19,227.41,201205,,,A*7E
$VWVHW,,,,,2.32,N,4.29,K*41
$WIMTW,25.0,C*0A
$WIMWV,58.5,R,10.2,N,A*28
$GPGLL,4440.1476,N,00111.7667,W,145132.000,A,A*4A
$SDDBT,43.3,f,13.1,M,7.2,F*04
$VWVHW,,,,,2.51,N,4.64,K*4D
!AIVDM,1,1,,A,H3II>8TUCBD73Q9617mpmq00000t,0*06
$WIMTW,25.0,C*0A
$WIMWV,60.0,R,10.8,N,A*2C
$GPRMC,145133.000,A,4440.1468,N,00111.7679,W,4.30,228.51,201205,,,A*73
!AIVDM,1,1,,A,13Hq<wP000OrabbISbru6pE408D0,0*5E
$SDDBT,43.5,f,13.2,M,7.2,F*01
$WIMWV,60.5,R,9.6,N,A*1F
$VWVHW,,,,,1.98,N,3.66,K*4E
$WIMTW,25.0,C*0A
$GPGLL,4440.1460,N,00111.7692,W,145134.000,A,A*41
!AIVDM,1,1,,A,13I@;<701:OrEnJIQ?8@?;?60@DB,0*5E
$GPRMC,145134.000,A,4440.1460,N,00111.7692,W,4.24,226.16,201205,,,A*71
$SDDBT,43.6,f,13.2,M,7.2,F*02
$WIMWV,52.5,R,11.6,N,A*27
$VWVHW,,,,,2.32,N,4.29,K*41
$WIMTW,25.0,C*0A
$GPGLL,4440.1452,N,00111.7704,W,145135.000,A,A*4F
$GPRMC,145135.000,A,4440.1452,N,00111.7704,W,4.21,228.54,201205,,,A*72
!AIVDM,1,1,,A,13INo20PA`OrOO<ISWbS4BK80Uk<,0*75
$WIMWV,61.5,R,10.5,N,A*25
$SDDBT,43.1,f,13.1,M,7.1,F*05
$VWVHW,,,,,2.41,N,4.46,K*4C
$WIMTW,25.0,C*0A
$GPGLL,4440.1445,N,00111.7716,W,145136.000,A,A*49
$WIMWV,61.0,R,11.2,N,A*26
$SDDBT,42.7,f,13.0,M,7.1,F*03
$GPRMC,145136.000,A,4440.1445,N,00111.7716,W,4.22,226.26,201205,,,A*7C
$VWVHW,,,,,2.32,N,4.29,K*41
$WIMTW,25.0,C*0A
$GPGLL,4440.1437,N,00111.7728,W,145137.000,A,A*40
$WIMWV,61.5,R,11.1,N,A*20
$SDDBT,43.6,f,13.2,M,7.2,F*02
$VWVHW,,,,,2.12,N,3.92,K*44
$WIMTW,25.0,C*0A
$GPRMC,145138.000,A,4440.1429,N,00111.7741,W,4.31,227.59,201205,,,A*71
$WIMWV,60.0,R,10.7,N,A*23
$SDDBT,43.6,f,13.2,M,7.2,F*02
$VWVHW,,,,,2.28,N,4.22,K*41
$WIMTW,25.0,C*0A
$GPGLL,4440.1421,N,00111.7753,W,145139.000,A,A*45
$GPRMC,145139.000,A,4440.1421,N,00111.7753,W,4.33,227.80,201205,,,A*7D
$WIMWV,67.0,R,11.9,N,A*2B
$SDDBT,44.5,f,13.5,M,7.4,F*07
$VWVHW,,,,,2.24,N,4.14,K*48
$WIMTW,25.0,C*0A
$GPGLL,4440.1413,N,00111.7766,W,145140.000,A,A*4C
$GPRMC,145140.000,A,4440.1413,N,00111.7766,W,4.28,226.49,201205,,,A*7A
$WIMWV,70.0,R,10.4,N,A*21
!AIVDM,1,1,,A,402:ngAvV2fkWOrB9TIRvIg008H8,0*33
$SDDBT,44.5,f,13.5,M,7.4,F*07
$VWVHW,,,,,2.51,N,4.64,K*4D
$WIMTW,25.0,C*0A
$GPGLL,4440.1405,N,00111.7779,W,145141.000,A,A*44
!AIVDM,1,1,,A,13IN@G7Oh0wr5sLITlB6A@OB0D09,0*7F
$WIMWV,58.5,R,10.7,N,A*2D
$SDDBT,43.4,f,13.2,M,7.2,F*00
$VWVHW,,,,,2.24,N,4.14,K*48
$GPRMC,145141.000,A,4440.1405,N,00111.7779,W,4.31,228.20,201205,,,A*7B
$WIMTW,25.0,C*0A
!AIVDM,1,1,,A,B3L0mk002wvRFiVI4vumSwv43P06,0*25
!AIVDM,1,1,,A,H3L0mk08uDDF1`E0PU:0TTV2220,2*61
!AIVDM,1,1,,A,H3L0mk4N19C401:ihhUPPP0@8070,0*0A
$GPGLL,4440.1397,N,00111.7791,W,145142.000,A,A*4D
$WIMWV,66.5,R,10.4,N,A*23
$SDDBT,44.8,f,13.6,M,7.4,F*09
$VWVHW,,,,,1.98,N,3.66,K*4E
$WIMTW,25.0,C*0A
$GPRMC,145143.000,A,4440.1389,N,00111.7803,W,4.25,224.33,201205,,,A*73
$WIMWV,66.0,R,9.4,N,A*1E
$SDDBT,44.4,f,13.5,M,7.4,F*06
$VWVHW,,,,,2.12,N,3.92,K*44
$WIMTW,25.0,C*0A
$GPGLL,4440.1381,N,00111.7815,W,145144.000,A,A*4F
$GPRMC,145144.000,A,4440.1381,N,00111.7815,W,4.35,225.52,201205,,,A*7C
$WIMWV,73.0,R,10.1,N,A*27
$SDDBT,44.4,f,13.5,M,7.4,F*06
$VWVHW,,,,,2.20,N,4.07,K*4E
$WIMTW,25.0,C*0A
$GPGLL,4440.1373,N,00111.7828,W,145145.000,A,A*4D
$GPRMC,145145.000,A,4440.1373,N,00111.7828,W,4.40,225.93,201205,,,A*71
$WIMWV,68.0,R,10.3,N,A*2F
$SDDBT,44.2,f,13.4,M,7.3,F*06
$VWVHW,,,,,2.62,N,4.85,K*42
$WIMTW,25.0,C*0A
$GPGLL,4440.1364,N,00111.7840,W,145146.000,A,A*46
$WIMWV,73.5,R,9.6,N,A*1D
$SDDBT,44.0,f,13.4,M,7.3,F*04
$GPRMC,145146.000,A,4440.1364,N,00111.7840,W,4.45,225.49,201205,,,A*78
$VWVHW,,,,,2.32,N,4.29,K*41
$WIMTW,25.0,C*0A
$WIMWV,71.5,R,8.7,N,A*1F
$GPGLL,4440.1356,N,00111.7852,W,145147.000,A,A*45
!AIVDM,1,1,,A,D02:ng@N`Nfq6DO6D0,4*1F
$SDDBT,45.0,f,13.7,M,7.5,F*00
$VWVHW,,,,,2.56,N,4.74,K*4B
$WIMTW,25.0,C*0A
$WIMWV,62.0,R,8.9,N,A*16
$GPRMC,145148.000,A,4440.1347,N,00111.7864,W,4.43,222.96,201205,,,A*72
$SDDBT,45.0,f,13.7,M,7.5,F*00
!AIVDM,1,1,,A,13IinA7000wrhSlISJeD;nwN0@Ls,0*2C
$VWVHW,,,,,2.20,N,4.07,K*4E
$WIMTW,25.0,C*0A
$GPGLL,4440.1338,N,00111.7877,W,145149.000,A,A*44
$WIMWV,82.0,R,10.2,N,A*2A
$GPRMC,145149.000,A,4440.1338,N,00111.7877,W,4.38,224.55,201205,,,A*7C
!AIVDM,1,1,,A,H3IAIKQ=DpqV0A8D4l000000000,2*4F
$SDDBT,44.6,f,13.5,M,7.4,F*04
$VWVHW,,,,,2.51,N,4.64,K*4D
$WIMTW,25.0,C*0A
$GPGLL,4440.1330,N,00111.7888,W,145150.000,A,A*44
$WIMWV,62.0,R,10.4,N,A*22
$GPRMC,145150.000,A,4440.1330,N,00111.7888,W,4.45,222.43,201205,,,A*77
$SDDBT,44.3,f,13.5,M,7.3,F*06
$VWVHW,,,,,2.46,N,4.55,K*49
$WIMTW,25.0,C*0A
$GPGLL,4440.1321,N,00111.7900,W,145151.000,A,A*44
$WIMWV,85.5,R,10.2,N,A*28
$SDDBT,44.3,f,13.5,M,7.3,F*06
$GPRMC,145151.000,A,4440.1321,N,00111.7900,W,4.48,221.61,201205,,,A*79
$VWVHW,,,,,2.41,N,4.46,K*4C
$WIMTW,25.0,C*0A
$WIMWV,70.5,R,9.4,N,A*1C
$GPGLL,4440.1312,N,00111.7912,W,145152.000,A,A*44
$SDDBT,44.4,f,13.5,M,7.4,F*06
$VWVHW,,,,,2.80,N,5.18,K*4B
$WIMTW,25.0,C*0A
!AIVDM,1,1,,A,13Hq<wP000OrabfISbs:l`Eb05k<,0*26
$WIMWV,79.5,R,9.9,N,A*18
$GPRMC,145153.000,A,4440.1302,N,00111.7923,W,4.44,220.23,201205,,,A*70
!AIVDM,2,1,9,A,53Hq<w`00000H4COS?DjLTp<tpqF22222222220t1P7435wDN4PDPh@j3k`8,0*02
!AIVDM,2,2,9,A,88888888880,2*2D
$SDDBT,45.6,f,13.8,M,7.6,F*0A
$VWVHW,,,,,2.28,N,4.22,K*41
$WIMTW,25.0,C*0A
$WIMWV,80.0,R,9.9,N,A*1B
$GPGLL,4440.1293,N,00111.7934,W,145154.000,A,A*4E
$GPRMC,145154.000,A,4440.1293,N,00111.7934,W,4.42,219.27,201205,,,A*70
!AIVDM,1,1,,A,13I@;<701;OrEpRIQ@fhE03f0@P9,0*12
$SDDBT,46.0,f,14.0,M,7.6,F*00
$VWVHW,,,,,2.51,N,4.64,K*4D
$WIMTW,25.0,C*0A
$WIMWV,80.5,R,10.8,N,A*27
$GPGLL,4440.1284,N,00111.7946,W,145155.000,A,A*4C
$GPRMC,145155.000,A,4440.1284,N,00111.7946,W,4.40,220.37,201205,,,A*7B
!AIVDM,1,1,,A,B3I1I100>GvUkQ6HmQ2bkwW5kP06,0*66
$SDDBT,45.7,f,13.9,M,7.6,F*0A
$VWVHW,,,,,2.51,N,4.64,K*4D
$WIMTW,25.0,C*0A
$WIMWV,62.0,R,10.1,N,A*27
$GPGLL,4440.1275,N,00111.7957,W,145156.000,A,A*41
$SDDBT,45.5,f,13.8,M,7.5,F*0A
$GPRMC,145156.000,A,4440.1275,N,00111.7957,W,4.45,219.86,201205,,,A*73
$VWVHW,,,,,3.32,N,6.14,K*4C
$WIMTW,25.0,C*0A
$WIMWV,91.0,R,9.6,N,A*14
$GPGLL,4440.1265,N,00111.7968,W,145157.000,A,A*4D
$SDDBT,45.4,f,13.8,M,7.5,F*0B
$VWVHW,,,,,2.32,N,4.29,K*41
$WIMWV,78.0,R,10.3,N,A*2E
$WIMTW,25.0,C*0A
$GPRMC,145158.000,A,4440.1256,N,00111.7979,W,4.48,219.83,201205,,,A*78
$SDDBT,45.3,f,13.8,M,7.5,F*0C
$VWVHW,,,,,2.41,N,4.46,K*4C
$WIMTW,25.0,C*0A
$WIMWV,73.5,R,10.2,N,A*21
$GPGLL,4440.1246,N,00111.7990,W,145159.000,A,A*45
$GPRMC,145159.000,A,4440.1246,N,00111.7990,W,4.43,216.10,201205,,,A*71
$SDDBT,45.5,f,13.8,M,7.5,F*0A
!AIVDM,1,1,,A,H3IAIKTT>F34k7a615qjii1H3520,0*41
$WIMWV,81.5,R,9.6,N,A*10
$VWVHW,,,,,2.46,N,4.55,K*49
$WIMTW,25.0,C*0A
$GPGLL,4440.1237,N,00111.8000,W,145200.000,A,A*43
!AIVDM,1,1,,A,B3Hl40P0CWvUw`6HbkH=3wP5oP06,0*2D
$GPRMC,145200.000,A,4440.1237,N,00111.8000,W,4.44,214.61,201205,,,A*74
!AIVDM,1,1,,A,402:ngAvV2fksOrB9bIRvIO005k<,0*23
$WIMWV,82.5,R,10.7,N,A*2A
$SDDBT,45.5,f,13.8,M,7.5,F*0A
$VWVHW,,,,,2.46,N,4.55,K*49
$WIMTW,25.0,C*0A
$GPGLL,4440.1226,N,00111.8011,W,145201.000,A,A*42
$WIMWV,72.0,R,11.0,N,A*26
$SDDBT,45.3,f,13.8,M,7.5,F*0C
$GPRMC,145201.000,A,4440.1226,N,00111.8011,W,4.52,215.02,201205,,,A*76
$VWVHW,,,,,2.28,N,4.22,K*41
$WIMTW,25.0,C*0A
!AIVDM,1,1,,A,C3K`Q@dH0OvSB;6J2JidwwP0P:`Ba0HNB711WKcW:00000000020,0*40
$GPGLL,4440.1217,N,00111.8021,W,145202.000,A,A*40
!AIVDM,1,1,,A,33INo20PA`OrP1FISWwSE2P60Pp@,0*0F
!AIVDM,1,1,,A,C3K`Q@dH0OvSB;6J2JidwwP0P:`Ba0HNB711WKcW:00000000020,0*40
!AIVDM,1,1,,A,13IN@G7001wr5sjITlAT@PN400Rb,0*35
$WIMWV,67.5,R,10.4,N,A*22
$SDDBT,45.4,f,13.8,M,7.5,F*0B
$VWVHW,,,,,2.12,N,3.92,K*44
$WIMTW,25.0,C*0A
$GPRMC,145203.000,A,4440.1207,N,00111.8032,W,4.39,216.36,201205,,,A*7F
$WIMWV,79.0,R,10.1,N,A*2D
$SDDBT,45.7,f,13.9,M,7.6,F*0A
$VWVLW,2540.4,N,1.01,N,,,,*4B
$VWVLW,2540.5,N,1.01,N,,,,*4A
$VWVLW,2540.5,N,1.01,N,,,,*4A
$VWVHW,,,,,2.51,N,4.64,K*4D
$WIMTW,25.0,C*0A
$GPGLL,4440.1197,N,00111.8042,W,145204.000,A,A*48
$GPRMC,145204.000,A,4440.1197,N,00111.8042,W,4.43,219.98,201205,,,A*73
$WIMWV,73.5,R,10.1,N,A*22
$SDDBT,45.4,f,13.8,M,7.5,F*0B
$VWVHW,,,,,2.62,N,4.85,K*42
$WIMTW,25.0,C*0A
$GPGLL,4440.1188,N,00111.8054,W,145205.000,A,A*40
$GPRMC,145205.000,A,4440.1188,N,00111.8054,W,4.49,220.05,201205,,,A*7F
$WIMWV,59.0,R,10.2,N,A*2C
$SDDBT,45.4,f,13.8,M,7.5,F*0B
!AIVDM,1,1,,A,B3ISQ50007vd1pVHnqP03wS5kP06,0*03
$VWVHW,,,,,2.08,N,3.85,K*49
$WIMTW,25.0,C*0A
$GPGLL,4440.1179,N,00111.8065,W,145206.000,A,A*4F
$WIMWV,78.0,R,10.9,N,A*24
$SDDBT,45.8,f,13.9,M,7.6,F*05
$GPRMC,145206.000,A,4440.1179,N,00111.8065,W,4.35,219.91,201205,,,A*7C
$VWVHW,,,,,2.28,N,4.22,K*41
$WIMTW,25.0,C*0A
$GPGLL,4440.1170,N,00111.8076,W,145207.000,A,A*45
$WIMWV,70.5,R,10.0,N,A*20
$SDDBT,45.5,f,13.8,M,7.5,F*0A
$VWVHW,,,,,2.20,N,4.07,K*4E
$WIMTW,25.0,C*0A
$GPRMC,145208.000,A,4440.1161,N,00111.8088,W,4.43,221.55,201205,,,A*7A
$WIMWV,62.0,R,10.4,N,A*22
$SDDBT,45.6,f,13.8,M,7.6,F*0A
$VWVHW,,,,,1.89,N,3.50,K*4B
$WIMTW,25.0,C*0A
$GPGLL,4440.1152,N,00111.8099,W,145209.000,A,A*4A
$GPRMC,145209.000,A,4440.1152,N,00111.8099,W,4.32,220.25,201205,,,A*7B
$WIMWV,69.5,R,10.0,N,A*28
!AIVDM,1,1,,A,B8dBL4h01wvGwVVHjD0oOwv43P06,0*7C
!AIVDM,1,1,,A,13IinA7000wrhSDISJhT;nv@0<09,0*5C
!AIVDM,1,1,,A,H8dBL4l0BCP00012?ijklm;@0000,0*1B
$SDDBT,45.3,f,13.8,M,7.5,F*0C
$VWVHW,,,,,2.24,N,4.14,K*48
$WIMTW,25.0,C*0A
$GPGLL,4440.1143,N,00111.8110,W,145210.000,A,A*42
$GPRMC,145210.000,A,4440.1143,N,00111.8110,W,4.29,222.25,201205,,,A*7B
$WIMWV,71.0,R,10.2,N,A*26
$SDDBT,45.3,f,13.8,M,7.5,F*0C
